location,latitude,longitude,station_id,observation_time,county,town,timestamp,Weather,VisibilityDescription,SunshineDuration,Now_Precipitation,WindDirection,WindSpeed,AirTemperature,RelativeHumidity,AirPressure,UVIndex,Max10MinAverage_WindSpeed,GustInfo_PeakGustSpeed
基隆,25.133314,121.740475,466940,2026-02-24T16:10:00+08:00,基隆市,仁愛區,2026-02-24 16:27:26.158089,陰有靄,7-10,0.7,0.0,40.0,1.6,20.9,86,1010.4,1,2.7,4.1
淡水,25.164889,121.448906,466900,2026-02-24T16:10:00+08:00,新北市,淡水區,2026-02-24 16:27:26.158112,陰有雨,7-10,0.3,-990.0,300.0,0.5,20.8,92,1011.8,1,0.8,1.8
新北,24.959207,121.525196,466881,2026-02-24T16:10:00+08:00,新北市,新店區,2026-02-24 16:27:26.158118,陰,21-30,0.4,-990.0,270.0,1.3,24.0,68,1010.8,0,1.9,3.4
陽明山,25.162078,121.544547,466930,2026-02-24T16:10:00+08:00,臺北市,北投區,2026-02-24 16:27:26.158123,陰,-99,0.4,0.0,0.0,0.0,18.4,92,945.3,1,1.7,2.8
鞍部,25.182586,121.529731,466910,2026-02-24T16:10:00+08:00,臺北市,北投區,2026-02-24 16:27:26.158127,陰有雨,16-20,0.3,-990.0,190.0,0.6,16.9,96,-99,1,2.2,2.9
新竹,24.828575,121.01445,467571,2026-02-24T16:10:00+08:00,新竹縣,竹北市,2026-02-24 16:27:26.158131,陰,>30,0.8,-990.0,0.0,0.2,23.2,73,1010.4,0,1.6,2.2
臺中,24.145736,120.684075,467490,2026-02-24T16:10:00+08:00,臺中市,北區,2026-02-24 16:27:26.158135,陰,16-20,1.9,-990.0,350.0,1.4,23.2,72,1003.8,0,2.4,5.3
梧棲,24.256003,120.523381,C0FA30,2026-02-24T16:10:00+08:00,臺中市,梧棲區,2026-02-24 16:27:26.158139,陰,-99,-99,0.0,360.0,1.8,21.6,89,-99,-99,4.0,6.4
澎湖,23.565503,119.563094,467350,2026-02-24T16:10:00+08:00,澎湖縣,馬公市,2026-02-24 16:27:26.158143,陰,21-30,2.5,0.0,20.0,2.6,22.9,82,1012.2,1,3.1,5.4
日月潭,23.881325,120.90805,467650,2026-02-24T16:10:00+08:00,南投縣,魚池鄉,2026-02-24 16:27:26.158147,陰有靄,7-10,3.3,0.0,270.0,0.8,19.5,83,-99,1,1.6,3.3
阿里山,23.508208,120.813242,467530,2026-02-24T16:10:00+08:00,嘉義縣,阿里山鄉,2026-02-24 16:27:26.158151,多雲,>30,2.6,0.0,320.0,0.7,11.4,89,-99,2,1.5,3.9
玉山,23.48718,120.95943,467550,2026-02-24T16:10:00+08:00,南投縣,信義鄉,2026-02-24 16:27:26.158155,多雲,-99,1.8,0.0,210.0,1.3,6.5,61,-99,2,3.5,10.4
嘉義,23.495925,120.432906,467480,2026-02-24T16:10:00+08:00,嘉義市,西區,2026-02-24 16:27:26.158163,陰,16-20,2.0,0.0,350.0,3.1,24.0,78,1010.0,1,-99,-99
臺南,22.99328,120.20492,467410,2026-02-24T16:10:00+08:00,臺南市,中西區,2026-02-24 16:27:26.158166,陰,11-15,1.7,0.0,330.0,3.3,25.8,68,1010.1,1,3.2,5.5
高雄,22.730432,120.312516,467441,2026-02-24T16:10:00+08:00,高雄市,楠梓區,2026-02-24 16:27:26.158171,陰,>30,2.3,0.0,290.0,2.3,26.6,71,1011.3,2,3.3,5.5
恆春,22.003897,120.746339,467590,2026-02-24T16:10:00+08:00,屏東縣,恆春鎮,2026-02-24 16:27:26.158174,晴,>30,2.7,-990.0,100.0,3.4,27.0,67,1009.5,3,4.1,9.1
宜蘭,24.763975,121.756528,467080,2026-02-24T16:10:00+08:00,宜蘭縣,宜蘭市,2026-02-24 16:27:26.158178,陰,>30,2.7,0.0,50.0,3.2,24.4,76,1012.8,1,3.9,6.2
花蓮,23.975128,121.613275,466990,2026-02-24T16:10:00+08:00,花蓮縣,花蓮市,2026-02-24 16:27:26.158182,陰,21-30,4.7,0.0,170.0,3.8,25.1,77,1010.8,2,4.9,6.9
成功,23.097486,121.373428,467610,2026-02-24T16:10:00+08:00,臺東縣,成功鎮,2026-02-24 16:27:26.158186,多雲,21-30,2.3,1.0,140.0,1.7,25.5,73,1008.2,2,2.0,3.8
臺東,22.752211,121.154586,467660,2026-02-24T16:10:00+08:00,臺東縣,臺東市,2026-02-24 16:27:26.158190,晴,>30,3.3,1.5,160.0,1.3,26.0,72,1011.5,3,1.6,3.1
大武,22.35572,120.90374,467540,2026-02-24T16:10:00+08:00,臺東縣,大武鄉,2026-02-24 16:27:26.158194,晴,-99,4.2,0.0,110.0,1.1,26.0,74,1011.7,3,1.7,2.8
蘭嶼,22.0369,121.55843,467620,2026-02-24T16:10:00+08:00,臺東縣,蘭嶼鄉,2026-02-24 16:27:26.158198,晴,>30,3.9,-990.0,160.0,1.2,24.4,79,976.3,2,4.4,7.0
彭佳嶼,25.627975,122.079744,466950,2026-02-24T16:10:00+08:00,基隆市,中正區,2026-02-24 16:27:26.158202,陰有靄,7-10,0.2,-990.0,310.0,3.7,19.3,94,1002.3,1,3.9,5.0
東吉島,23.25727,119.66762,467300,2026-02-24T16:10:00+08:00,澎湖縣,望安鄉,2026-02-24 16:27:26.158207,陰,21-30,2.9,0.0,30.0,5.3,23.1,82,1008.3,2,5.7,7.0
南沙島,10.370203,114.364286,469020,2026-02-24T16:10:00+08:00,高雄市,旗津區,2026-02-24 16:27:26.158211,-99,-99,-99,-99,-99,-99,-99,-99,-99,-99,-99,-99
東沙島,20.700856,116.73,468100,2026-02-24T16:10:00+08:00,高雄市,旗津區,2026-02-24 16:27:26.158215,-99,-99,-99,-99,-99,-99,-99,-99,-99,-99,-99,-99
永康,23.038386,120.2367,467420,2026-02-24T16:10:00+08:00,臺南市,永康區,2026-02-24 16:27:26.158218,多雲,-99,2.3,0.0,320.0,3.5,26.1,66,1011.6,1,3.6,6.4
金門(東),24.448431,118.451786,C2W030,2026-02-24T16:10:00+08:00,金門縣,金湖鎮,2026-02-24 16:27:26.158222,陰,-99,-99,17.0,130.0,1.3,16.1,97,-99,-99,1.8,3.4
臺北,25.037658,121.514853,466920,2026-02-24T16:10:00+08:00,臺北市,中正區,2026-02-24 16:27:26.158226,陰,>30,0.2,-990.0,310.0,0.5,24.9,63,1010.2,0,2.9,4.6
彰師大,24.081389,120.556667,A0G720,2026-02-24T16:10:00+08:00,彰化縣,彰化市,2026-02-24 16:27:26.158230,陰,-99,-99,0.0,320.0,1.3,22.6,82,-99,-99,2.5,5.9
合歡山,24.143186,121.284231,A0Z080,2026-02-24T16:10:00+08:00,花蓮縣,秀林鄉,2026-02-24 16:27:26.158234,陰,-99,-99,0.0,90.0,5.4,5.0,81,-99,-99,6.3,12.9
吉貝,23.740011,119.604189,A0W080,2026-02-24T16:10:00+08:00,澎湖縣,白沙鄉,2026-02-24 16:27:26.158238,陰,-99,-99,-99,-99,-99,-99,-99,-99,-99,-99,-99
金門,24.407306,118.289281,467110,2026-02-24T16:10:00+08:00,金門縣,金城鎮,2026-02-24 16:27:26.158241,陰有靄,1.2,0.0,12.0,140.0,1.6,16.8,98,1010.8,1,1.3,2.3
馬祖,26.169467,119.923158,467990,2026-02-24T16:10:00+08:00,連江縣,南竿鄉,2026-02-24 16:27:26.158245,陰有靄,3-6,0.1,1.5,190.0,1.8,15.7,98,1003.5,1,2.6,3.7
麥寮,23.798783,120.217717,A0K420,2026-02-24T16:10:00+08:00,雲林縣,麥寮鄉,2026-02-24 16:27:26.158249,陰,-99,-99,0.0,20.0,4.8,22.1,84,-99,-99,6.0,9.5
新屋,25.006725,121.047492,467050,2026-02-24T16:10:00+08:00,桃園市,新屋區,2026-02-24 16:27:26.158253,陰有靄,7-10,0.1,-990.0,300.0,1.8,21.5,89,1011.6,0,1.5,2.5
古坑(花卉中心),23.63353,120.55239,A2K570,2026-02-24T16:10:00+08:00,雲林縣,古坑鄉,2026-02-24 16:27:26.158257,陰,-99,-99,0.0,10.0,2.9,23.8,73,-99,-99,4.0,6.0
大安森林,25.02955,121.53628,CAAH60,2026-02-24T16:10:00+08:00,臺北市,大安區,2026-02-24 16:27:26.158261,陰,-99,-99,0.0,0.0,0.0,23.8,66,-99,-99,0.3,1.8
消防署訓練中心,23.82137,120.72293,CAHA00,2026-02-24T16:10:00+08:00,南投縣,竹山鎮,2026-02-24 16:27:26.158265,陰,-99,-99,0.0,330.0,1.3,23.2,74,-99,-99,2.4,5.7
田中,23.873803,120.581286,467270,2026-02-24T16:10:00+08:00,彰化縣,田中鎮,2026-02-24 16:27:26.158268,陰,>30,1.2,-990.0,350.0,2.6,23.4,72,1008.4,1,3.9,6.5
拉拉山,24.699317,121.427133,CAC040,2026-02-24T16:10:00+08:00,桃園市,復興區,2026-02-24 16:27:26.158272,陰,-99,-99,0.0,320.0,0.4,13.3,92,-99,-99,1.1,2.2
東引,26.358836,120.483631,CAW010,2026-02-24T16:10:00+08:00,連江縣,東引鄉,2026-02-24 16:27:26.158276,陰有靄,7-10,-99,1.0,190.0,1.0,14.7,94,-99,-99,1.7,2.7
高雄燈塔,22.614594,120.26468,CAP070,2026-02-24T16:10:00+08:00,高雄市,旗津區,2026-02-24 16:27:26.158280,陰,-99,-99,0.0,180.0,1.2,26.6,75,-99,-99,1.2,2.7
武陵,24.352825,121.308286,A0F010,2026-02-24T16:10:00+08:00,臺中市,和平區,2026-02-24 16:27:26.158284,陰,-99,-99,0.0,210.0,1.3,16.0,67,-99,-99,2.7,6.9
後龍,24.648563,120.831834,467280,2026-02-24T16:10:00+08:00,苗栗縣,造橋鄉,2026-02-24 16:27:26.158288,陰,11-15,0.3,-990.0,110.0,0.4,21.4,91,1009.7,0,1.7,2.7
古坑,23.633639,120.551889,467290,2026-02-24T16:10:00+08:00,雲林縣,古坑鄉,2026-02-24 16:27:26.158291,陰,-99,1.3,0.0,10.0,3.1,23.8,72,1002.8,1,4.6,6.8
中央大學,24.967652,121.185165,C2C410,2026-02-24T16:10:00+08:00,桃園市,中壢區,2026-02-24 16:27:26.158295,陰,-99,-99,0.0,350.0,0.4,22.8,75,-99,-99,1.0,1.7
文化大學,25.13605,121.53987,A0A460,2026-02-24T16:10:00+08:00,臺北市,士林區,2026-02-24 16:27:26.158299,陰,-99,-99,0.0,220.0,1.1,20.4,76,-99,-99,1.3,2.4
臺灣大學,25.014278,121.539416,A0A010,2026-02-24T16:10:00+08:00,臺北市,大安區,2026-02-24 16:27:26.158303,陰,-99,-99,0.0,60.0,0.4,24.3,63,-99,-99,-99,-99
班鳩分場,22.829528,121.077694,72S200,2026-02-24T16:10:00+08:00,臺東縣,卑南鄉,2026-02-24 16:27:26.158307,多雲,-99,-99,0.5,100.0,2.9,23.9,73,-99,-99,3.8,6.9
賓朗果園,22.813889,121.071278,72S590,2026-02-24T16:10:00+08:00,臺東縣,卑南鄉,2026-02-24 16:27:26.158311,多雲,-99,-99,0.0,20.0,0.5,23.6,-99,-99,-99,1.0,2.7
臺東茶改,22.907694,121.130139,82S580,2026-02-24T16:10:00+08:00,臺東縣,鹿野鄉,2026-02-24 16:27:26.158315,多雲,-99,-99,0.0,-99,-99,24.9,71,-99,-99,-99,-99
臺大溪頭,23.670306,120.798194,U2H480,2026-02-24T16:10:00+08:00,南投縣,鹿谷鄉,2026-02-24 16:27:26.158320,陰,-99,-99,0.0,350.0,0.4,15.9,97,-99,-99,1.5,3.2
臺中農改,24.003028,120.534389,72G600,2026-02-24T16:10:00+08:00,彰化縣,大村鄉,2026-02-24 16:27:26.158329,陰,-99,-99,0.0,360.0,3.2,23.0,75,-99,-99,4.2,6.1
雲林分場,23.634556,120.477333,72K220,2026-02-24T16:10:00+08:00,雲林縣,斗南鎮,2026-02-24 16:27:26.158333,陰,-99,-99,0.0,350.0,2.5,24.6,73,-99,-99,3.0,5.9
臺南農改,23.0605,120.342194,72N100,2026-02-24T16:10:00+08:00,臺南市,新化區,2026-02-24 16:27:26.158336,多雲,-99,-99,0.0,-99,-99,26.4,67,-99,-99,-99,-99
旗南農改,22.857861,120.516667,72V140,2026-02-24T16:10:00+08:00,高雄市,旗山區,2026-02-24 16:27:26.158340,陰,-99,-99,0.0,290.0,4.0,26.1,63,-99,-99,4.8,6.7
高雄農改,22.709333,120.525889,72Q010,2026-02-24T16:10:00+08:00,屏東縣,長治鄉,2026-02-24 16:27:26.158344,陰,-99,-99,0.0,290.0,1.9,28.0,61,-99,-99,2.0,4.6
新竹畜試,24.527806,120.770972,B2E890,2026-02-24T16:10:00+08:00,苗栗縣,西湖鄉,2026-02-24 16:27:26.158348,陰,-99,-99,0.0,160.0,0.3,20.9,85,-99,-99,1.1,1.9
桃園農改,24.950944,121.030583,72C440,2026-02-24T16:10:00+08:00,桃園市,新屋區,2026-02-24 16:27:26.158352,陰,-99,-99,0.0,280.0,0.5,22.1,82,-99,-99,0.4,1.3
五峰站,24.612194,121.157167,72D080,2026-02-24T16:10:00+08:00,新竹縣,五峰鄉,2026-02-24 16:27:26.158356,陰,-99,-99,0.0,0.0,0.0,15.8,99,-99,-99,0.3,1.6
茶改場,24.908472,121.185333,82C160,2026-02-24T16:10:00+08:00,桃園市,楊梅區,2026-02-24 16:27:26.158359,陰,-99,-99,0.0,0.0,0.0,21.9,74,-99,-99,1.1,2.2
農工中心,24.985917,121.239833,A2C560,2026-02-24T16:10:00+08:00,桃園市,中壢區,2026-02-24 16:27:26.158363,陰,-99,-99,0.0,0.0,0.0,22.7,73,-99,-99,1.3,2.7
文山茶改,24.955778,121.631222,82A750,2026-02-24T16:10:00+08:00,新北市,石碇區,2026-02-24 16:27:26.158367,陰,-99,-99,0.0,0.0,0.0,21.2,80,-99,-99,1.0,1.9
蘭陽分場,24.686306,121.716583,72U480,2026-02-24T16:10:00+08:00,宜蘭縣,三星鄉,2026-02-24 16:27:26.158371,陰,-99,-99,0.0,350.0,1.3,24.6,71,-99,-99,2.6,3.7
苗栗農改,24.495722,120.829111,K2E360,2026-02-24T16:10:00+08:00,苗栗縣,公館鄉,2026-02-24 16:27:26.158375,陰,-99,-99,0.0,20.0,1.8,21.6,78,-99,-99,2.5,4.1
大湖分場,24.422861,120.871833,K2E710,2026-02-24T16:10:00+08:00,苗栗縣,大湖鄉,2026-02-24 16:27:26.158379,陰,-99,-99,0.0,330.0,1.5,21.2,77,-99,-99,2.2,3.9
種苗繁殖,24.225972,120.800917,K2F750,2026-02-24T16:10:00+08:00,臺中市,新社區,2026-02-24 16:27:26.158383,陰,-99,-99,0.0,20.0,1.3,20.4,81,-99,-99,2.3,3.6
凍頂茶改,23.762528,120.7405,82H840,2026-02-24T16:10:00+08:00,南投縣,鹿谷鄉,2026-02-24 16:27:26.158387,陰,-99,-99,0.0,360.0,1.7,21.2,75,-99,-99,2.8,4.3
魚池茶改,23.875611,120.913583,82H320,2026-02-24T16:10:00+08:00,南投縣,魚池鄉,2026-02-24 16:27:26.158391,陰,-99,-99,0.0,220.0,1.1,19.5,80,-99,-99,1.6,4.3
臺大竹山,23.756972,120.681556,U2HA50,2026-02-24T16:10:00+08:00,南投縣,竹山鎮,2026-02-24 16:27:26.158394,陰,-99,-99,-99,-99,-99,-99,-99,-99,-99,-99,-99
嘉義農試,23.485028,120.473806,G2L020,2026-02-24T16:10:00+08:00,嘉義市,東區,2026-02-24 16:27:26.158398,陰,-99,-99,0.0,330.0,3.2,24.1,73,-99,-99,3.6,7.0
義竹分場,23.360694,120.279361,72M360,2026-02-24T16:10:00+08:00,嘉義縣,義竹鄉,2026-02-24 16:27:26.158402,陰,-99,-99,0.0,330.0,3.7,25.3,66,-99,-99,4.9,6.9
畜試所,23.058972,120.336406,B2N890,2026-02-24T16:10:00+08:00,臺南市,新化區,2026-02-24 16:27:26.158406,多雲,-99,-99,0.0,320.0,2.1,26.0,69,-99,-99,2.7,5.0
鳳山農試,22.646611,120.356083,G2P820,2026-02-24T16:10:00+08:00,高雄市,鳳山區,2026-02-24 16:27:26.158410,陰,-99,-99,0.0,330.0,2.5,26.3,69,-99,-99,2.3,5.3
恆春畜試,21.945583,120.802167,B2Q810,2026-02-24T16:10:00+08:00,屏東縣,恆春鎮,2026-02-24 16:27:26.158414,晴,-99,-99,4.5,70.0,2.7,26.7,66,-99,-99,3.8,8.1
花蓮農改,23.975222,121.563889,72T250,2026-02-24T16:10:00+08:00,花蓮縣,吉安鄉,2026-02-24 16:27:26.158417,陰,-99,-99,0.0,330.0,1.3,24.8,80,-99,-99,1.9,3.2
蓮華池,23.918333,120.885278,E2H360,2026-02-24T16:10:00+08:00,南投縣,魚池鄉,2026-02-24 16:27:26.158422,陰,-99,-99,0.0,10.0,0.8,21.3,75,-99,-99,1.4,4.0
埔里分場,23.903208,120.963364,72HA00,2026-02-24T16:10:00+08:00,南投縣,魚池鄉,2026-02-24 16:27:26.158426,陰,-99,-99,0.0,-99,-99,21.8,74,-99,-99,-99,-99
臺大和社,23.590856,120.888864,U2HA30,2026-02-24T16:10:00+08:00,南投縣,信義鄉,2026-02-24 16:27:26.158430,多雲,-99,-99,0.0,60.0,0.9,22.6,80,-99,-99,0.8,4.7
臺大內茅埔,23.689722,120.851117,U2HA40,2026-02-24T16:10:00+08:00,南投縣,信義鄉,2026-02-24 16:27:26.158434,陰,-99,-99,0.0,300.0,1.0,22.4,73,-99,-99,1.6,5.6
溪口農場,23.58565,120.408111,G2M350,2026-02-24T16:10:00+08:00,嘉義縣,溪口鄉,2026-02-24 16:27:26.158438,陰,-99,-99,0.0,360.0,3.3,24.0,76,-99,-99,4.6,7.2
四湖植物園,23.676986,120.163433,E2K600,2026-02-24T16:10:00+08:00,雲林縣,四湖鄉,2026-02-24 16:27:26.158441,陰,-99,-99,0.0,10.0,0.6,23.0,97,-99,-99,1.5,5.3
農業試驗所,24.031261,120.688133,G2F820,2026-02-24T16:10:00+08:00,臺中市,霧峰區,2026-02-24 16:27:26.158445,陰,-99,-99,0.0,320.0,3.1,23.6,73,-99,-99,-99,-99
嘉義分場,23.416869,120.283061,72M700,2026-02-24T16:10:00+08:00,嘉義縣,鹿草鄉,2026-02-24 16:27:26.158449,陰,-99,-99,0.0,-99,-99,24.6,72,-99,-99,-99,-99
七股研究中心,23.081672,120.062894,72N240,2026-02-24T16:10:00+08:00,臺南市,七股區,2026-02-24 16:27:26.158453,陰,-99,-99,0.0,360.0,4.5,24.2,79,-99,-99,4.9,7.1
萬大發電廠,23.978875,121.139639,42HA10,2026-02-24T16:10:00+08:00,南投縣,仁愛鄉,2026-02-24 16:27:26.158482,陰,-99,-99,0.0,10.0,0.9,20.1,69,-99,-99,1.6,3.6
東港工作站,22.479997,120.466058,12Q970,2026-02-24T16:10:00+08:00,屏東縣,東港鎮,2026-02-24 16:27:26.158485,陰,-99,-99,0.0,210.0,3.3,26.9,67,-99,-99,3.6,6.6
口湖工作站,23.589978,120.180394,12J990,2026-02-24T16:10:00+08:00,雲林縣,口湖鄉,2026-02-24 16:27:26.158489,陰,-99,-99,0.0,20.0,3.2,23.0,80,-99,-99,2.8,6.1
恆春工作站,22.079678,120.714425,12Q980,2026-02-24T16:10:00+08:00,屏東縣,車城鄉,2026-02-24 16:27:26.158493,晴,-99,-99,0.0,80.0,3.9,27.2,62,-99,-99,5.3,9.5
大庄合作社,23.8068,120.367939,V2K610,2026-02-24T16:10:00+08:00,雲林縣,二崙鄉,2026-02-24 16:27:26.158497,陰,-99,-99,0.0,10.0,3.0,22.7,79,-99,-99,3.8,6.3
麥寮合作社,23.753836,120.294783,V2K620,2026-02-24T16:10:00+08:00,雲林縣,麥寮鄉,2026-02-24 16:27:26.158501,陰,-99,-99,-99,-99,-99,-99,-99,-99,-99,-99,-99
太麻里(1),22.598922,120.980044,E2S980,2026-02-24T16:10:00+08:00,臺東縣,太麻里鄉,2026-02-24 16:27:26.158507,多雲,-99,-99,1.0,0.0,0.0,24.8,75,-99,-99,1.4,3.2
太麻里(2),22.598,120.99775,E2S960,2026-02-24T16:10:00+08:00,臺東縣,太麻里鄉,2026-02-24 16:27:26.158511,多雲,-99,-99,0.5,140.0,1.2,26.0,68,-99,-99,1.6,3.0
桃改臺北,24.944503,121.386972,72AI40,2026-02-24T16:10:00+08:00,新北市,樹林區,2026-02-24 16:27:26.158515,陰,-99,-99,0.0,0.0,0.0,23.9,63,-99,-99,0.9,2.1
畢祿溪站,24.226944,121.308522,E2HA20,2026-02-24T16:10:00+08:00,南投縣,仁愛鄉,2026-02-24 16:27:26.158518,陰,-99,-99,0.0,0.0,0.0,13.2,66,-99,-99,0.4,1.7
蘭花園區,23.340258,120.379661,A2N290,2026-02-24T16:10:00+08:00,臺南市,後壁區,2026-02-24 16:27:26.158522,陰,-99,-99,0.0,350.0,3.5,25.9,71,-99,-99,4.7,8.2
宜蘭畜試,24.669039,121.832561,B2U990,2026-02-24T16:10:00+08:00,宜蘭縣,五結鄉,2026-02-24 16:27:26.158526,陰,-99,-99,0.0,340.0,2.1,25.1,79,-99,-99,1.6,2.6
雲林臺大,23.730628,120.423903,A2K630,2026-02-24T16:10:00+08:00,雲林縣,虎尾鎮,2026-02-24 16:27:26.158530,陰,-99,-99,0.0,360.0,2.8,22.9,76,-99,-99,3.4,7.4
六龜林試,22.991703,120.645722,E2P980,2026-02-24T16:10:00+08:00,高雄市,六龜區,2026-02-24 16:27:26.158534,多雲,-99,-99,0.0,270.0,1.8,26.1,65,-99,-99,2.0,3.8
扇平林試,22.9677,120.685703,E2P990,2026-02-24T16:10:00+08:00,高雄市,茂林區,2026-02-24 16:27:26.158538,多雲,-99,-99,-99,-99,-99,-99,-99,-99,-99,-99,-99
臺西水試,23.717231,120.190522,A2K360,2026-02-24T16:10:00+08:00,雲林縣,臺西鄉,2026-02-24 16:27:26.158542,陰,-99,-99,0.0,30.0,2.6,-99,-99,-99,-99,3.6,6.6
八德合作社,24.93775,121.266389,V2C250,2026-02-24T16:10:00+08:00,桃園市,八德區,2026-02-24 16:27:26.158545,陰,-99,-99,-99,-99,-99,-99,-99,-99,-99,-99,-99
八德蔬果,24.978508,121.281819,V2C260,2026-02-24T16:10:00+08:00,桃園市,八德區,2026-02-24 16:27:26.158549,陰,-99,-99,-99,330.0,0.5,23.1,68,-99,-99,1.1,2.3
新埔工作站,24.834444,121.066111,72D680,2026-02-24T16:10:00+08:00,新竹縣,新埔鎮,2026-02-24 16:27:26.158553,陰,-99,-99,0.0,340.0,0.3,22.7,74,-99,-99,1.7,2.3
台農院關渡站,25.11575,121.492,G2AI50,2026-02-24T16:10:00+08:00,臺北市,北投區,2026-02-24 16:27:26.158557,陰,-99,-99,0.0,300.0,1.4,23.5,67,-99,-99,2.2,2.8
茶改場竹圍站,23.86008,120.6375,CAH030,2026-02-24T16:10:00+08:00,南投縣,名間鄉,2026-02-24 16:27:26.158561,陰,-99,-99,0.0,340.0,0.9,21.4,79,-99,-99,1.6,3.6
水試所海水繁養殖中心,23.120802,120.079676,CAN130,2026-02-24T16:10:00+08:00,臺南市,七股區,2026-02-24 16:27:26.158565,陰,-99,-99,0.0,360.0,4.9,23.4,83,-99,-99,5.3,7.6
布袋國中,23.35893,120.18026,CAL110,2026-02-24T16:10:00+08:00,嘉義縣,布袋鎮,2026-02-24 16:27:26.158569,陰,-99,-99,0.0,350.0,5.0,23.3,79,-99,-99,5.7,8.1
王功漁港,23.96824,120.32586,CAG100,2026-02-24T16:10:00+08:00,彰化縣,芳苑鄉,2026-02-24 16:27:26.158573,陰,-99,-99,0.0,20.0,4.2,22.0,81,-99,-99,4.6,6.3
海口故事園區,23.57543,120.14121,CAJ050,2026-02-24T16:10:00+08:00,雲林縣,口湖鄉,2026-02-24 16:27:26.158577,陰,-99,-99,-99,-99,-99,-99,-99,-99,-99,-99,-99
六官養殖協會,23.22881,120.29962,CAN140,2026-02-24T16:10:00+08:00,臺南市,六甲區,2026-02-24 16:27:26.158581,多雲,-99,-99,0.0,290.0,4.0,25.1,66,-99,-99,4.7,7.1
崎峰國小,22.42565,120.49521,CAQ030,2026-02-24T16:10:00+08:00,屏東縣,林邊鄉,2026-02-24 16:27:26.158585,陰,-99,-99,0.0,190.0,4.7,-99,-99,-99,-99,5.0,7.2
外寮,23.562643,120.665688,C2M960,2026-02-24T16:10:00+08:00,嘉義縣,梅山鄉,2026-02-24 16:27:26.158589,陰,-99,-99,0.0,270.0,0.4,17.7,92,-99,-99,2.4,4.0
碧湖,23.568632,120.624165,C2M970,2026-02-24T16:10:00+08:00,嘉義縣,梅山鄉,2026-02-24 16:27:26.158592,陰,-99,-99,0.0,340.0,1.3,17.2,95,-99,-99,2.1,4.3
屏東,22.660269,120.494027,C2R170,2026-02-24T16:10:00+08:00,屏東縣,屏東市,2026-02-24 16:27:26.158596,陰,-99,-99,0.0,330.0,0.6,27.6,64,-99,-99,1.0,3.4
美濃,22.898792,120.51907,C2V310,2026-02-24T16:10:00+08:00,高雄市,美濃區,2026-02-24 16:27:26.158600,多雲,-99,-99,0.0,300.0,3.7,26.3,67,-99,-99,3.9,6.9
安和,23.51377,120.31593,C2M980,2026-02-24T16:10:00+08:00,嘉義縣,新港鄉,2026-02-24 16:27:26.158604,陰,-99,-99,0.0,360.0,4.8,23.9,75,-99,-99,4.9,7.5
大巃頂,23.5547,120.61439,C2M990,2026-02-24T16:10:00+08:00,嘉義縣,梅山鄉,2026-02-24 16:27:26.158608,陰,-99,-99,0.0,310.0,1.1,17.6,94,-99,-99,1.7,3.5
茅港尾,23.2061,120.2624,C2N170,2026-02-24T16:10:00+08:00,臺南市,下營區,2026-02-24 16:27:26.158612,多雲,-99,-99,0.0,310.0,2.8,24.4,75,-99,-99,3.3,5.5
竹田國中,22.61532,120.52412,C2R980,2026-02-24T16:10:00+08:00,屏東縣,竹田鄉,2026-02-24 16:27:26.158616,陰,-99,-99,0.0,260.0,3.0,29.2,54,-99,-99,3.1,5.3
泰武,22.60686,120.69765,C2R990,2026-02-24T16:10:00+08:00,屏東縣,泰武鄉,2026-02-24 16:27:26.158620,陰,-99,-99,0.0,240.0,1.0,21.3,77,-99,-99,1.3,5.3
六十石,23.22477,121.31861,C2TA60,2026-02-24T16:10:00+08:00,花蓮縣,富里鄉,2026-02-24 16:27:26.158623,多雲,-99,-99,0.0,180.0,1.1,19.9,83,-99,-99,3.4,6.1
赤科坪,23.39885,121.39168,C2TA70,2026-02-24T16:10:00+08:00,花蓮縣,玉里鎮,2026-02-24 16:27:26.158627,陰,-99,-99,0.0,240.0,1.4,19.8,86,-99,-99,1.9,3.4
出水溪,24.615822,121.652253,C2UC10,2026-02-24T16:10:00+08:00,宜蘭縣,大同鄉,2026-02-24 16:27:26.158631,陰,-99,-99,0.0,50.0,1.1,20.5,82,-99,-99,1.5,2.6
長嶺,24.70894,121.61162,C2UC20,2026-02-24T16:10:00+08:00,宜蘭縣,員山鄉,2026-02-24 16:27:26.158635,陰,-99,-99,0.0,350.0,0.2,21.1,83,-99,-99,0.5,1.0
和興,24.505319,120.923016,C2E980,2026-02-24T16:10:00+08:00,苗栗縣,獅潭鄉,2026-02-24 16:27:26.158639,陰,-99,-99,0.0,10.0,1.0,18.0,94,-99,-99,3.4,5.8
新坪頂,24.30201,120.8574,C2E990,2026-02-24T16:10:00+08:00,苗栗縣,卓蘭鎮,2026-02-24 16:27:26.158643,陰,-99,-99,0.0,50.0,2.2,19.6,85,-99,-99,2.7,5.9
松茗,23.8167,120.650765,C2H9Y0,2026-02-24T16:10:00+08:00,南投縣,名間鄉,2026-02-24 16:27:26.158647,陰,-99,-99,0.0,30.0,1.9,20.9,80,-99,-99,2.1,4.6
大新,22.67558,120.57788,C2RA10,2026-02-24T16:10:00+08:00,屏東縣,內埔鄉,2026-02-24 16:27:26.158651,陰,-99,-99,0.0,310.0,3.5,27.9,57,-99,-99,3.9,6.2
加納納,23.466421,121.359867,C2TA90,2026-02-24T16:10:00+08:00,花蓮縣,瑞穗鄉,2026-02-24 16:27:26.158655,陰,-99,-99,0.0,70.0,1.3,24.9,70,-99,-99,1.9,3.4
吉安,23.94538,121.54803,C2TB30,2026-02-24T16:10:00+08:00,花蓮縣,吉安鄉,2026-02-24 16:27:26.158659,陰,-99,-99,0.0,60.0,0.4,24.8,75,-99,-99,0.7,2.0
崙內,23.69525,120.35601,C2K290,2026-02-24T16:10:00+08:00,雲林縣,土庫鎮,2026-02-24 16:27:26.158665,陰,-99,-99,0.0,20.0,2.7,23.3,77,-99,-99,5.0,7.5
鹿南,23.63855,120.3636,C2K300,2026-02-24T16:10:00+08:00,雲林縣,元長鄉,2026-02-24 16:27:26.158669,陰,-99,-99,0.0,10.0,4.1,23.9,77,-99,-99,4.8,7.1
崙背,23.75553,120.31893,C2K250,2026-02-24T16:10:00+08:00,雲林縣,崙背鄉,2026-02-24 16:27:26.158672,陰,-99,-99,0.0,30.0,3.2,22.9,79,-99,-99,3.5,6.6
四湖,23.6304,120.22717,C2K280,2026-02-24T16:10:00+08:00,雲林縣,四湖鄉,2026-02-24 16:27:26.158676,陰,-99,-99,0.0,20.0,3.3,23.9,75,-99,-99,3.6,7.0
下營,23.226806,120.256291,C2X060,2026-02-24T16:10:00+08:00,臺南市,下營區,2026-02-24 16:27:26.158680,多雲,-99,-99,0.0,320.0,3.0,25.2,69,-99,-99,3.9,6.3
利吉,22.86246,121.15486,C2S9B0,2026-02-24T16:10:00+08:00,臺東縣,卑南鄉,2026-02-24 16:27:26.158684,多雲,-99,-99,1.0,110.0,2.2,24.2,77,-99,-99,3.3,6.3
北份子寮,22.78561,121.07813,C2S9A0,2026-02-24T16:10:00+08:00,臺東縣,卑南鄉,2026-02-24 16:27:26.158688,多雲,-99,-99,0.5,160.0,2.1,25.4,69,-99,-99,3.0,4.6
順那,23.04166,121.29332,C2SD50,2026-02-24T16:10:00+08:00,臺東縣,東河鄉,2026-02-24 16:27:26.158692,多雲,-99,-99,0.5,100.0,2.6,25.2,68,-99,-99,2.6,6.5
二層坪,22.94105,121.16838,C2SD70,2026-02-24T16:10:00+08:00,臺東縣,鹿野鄉,2026-02-24 16:27:26.158696,多雲,-99,-99,0.5,240.0,2.8,25.3,66,-99,-99,3.9,6.6
明峰,22.8671,121.11825,C2SD60,2026-02-24T16:10:00+08:00,臺東縣,卑南鄉,2026-02-24 16:27:26.158699,多雲,-99,-99,0.0,170.0,2.7,23.5,76,-99,-99,3.5,6.0
再來山,23.34371,121.44122,C2SD80,2026-02-24T16:10:00+08:00,臺東縣,長濱鄉,2026-02-24 16:27:26.158703,陰,-99,-99,2.5,180.0,1.1,23.3,78,-99,-99,1.2,2.1
庄子底,23.71794,121.49438,C2TB80,2026-02-24T16:10:00+08:00,花蓮縣,鳳林鎮,2026-02-24 16:27:26.158707,多雲,-99,-99,0.0,90.0,1.2,25.5,67,-99,-99,2.0,3.8
長橋,23.6874,121.46186,C2TB90,2026-02-24T16:10:00+08:00,花蓮縣,鳳林鎮,2026-02-24 16:27:26.158711,多雲,-99,-99,0.0,120.0,1.0,25.1,72,-99,-99,1.3,3.1
麻汝,23.42554,121.39358,C2TB50,2026-02-24T16:10:00+08:00,花蓮縣,玉里鎮,2026-02-24 16:27:26.158715,陰,-99,-99,0.0,360.0,0.9,26.1,65,-99,-99,1.3,2.6
達谷寮,23.38,121.35968,C2TB70,2026-02-24T16:10:00+08:00,花蓮縣,玉里鎮,2026-02-24 16:27:26.158719,陰,-99,-99,0.0,170.0,1.5,26.1,66,-99,-99,1.6,2.8
南安,23.29818,121.26157,C2TB60,2026-02-24T16:10:00+08:00,花蓮縣,卓溪鄉,2026-02-24 16:27:26.158723,陰,-99,-99,0.0,150.0,1.0,25.7,65,-99,-99,2.6,5.2
福盛,23.89353,120.84077,C2H9X0,2026-02-24T16:10:00+08:00,南投縣,中寮鄉,2026-02-24 16:27:26.158736,陰,-99,-99,-99,-99,-99,-99,-99,-99,-99,-99,-99
埔南,23.99124,120.46969,C2G9C0,2026-02-24T16:10:00+08:00,彰化縣,埔鹽鄉,2026-02-24 16:27:26.158740,陰,-99,-99,0.0,10.0,3.1,22.9,76,-99,-99,4.3,5.9
移民庄,23.9784,120.40283,C2G9E0,2026-02-24T16:10:00+08:00,彰化縣,二林鎮,2026-02-24 16:27:26.158744,陰,-99,-99,0.0,10.0,3.1,22.6,79,-99,-99,3.6,5.5
港尾布雞,23.74834,120.38439,C2K310,2026-02-24T16:10:00+08:00,雲林縣,崙背鄉,2026-02-24 16:27:26.158748,陰,-99,-99,0.0,10.0,3.5,22.7,82,-99,-99,5.1,7.3
大華,23.4824,120.67491,C2M9A0,2026-02-24T16:10:00+08:00,嘉義縣,竹崎鄉,2026-02-24 16:27:26.158752,陰,-99,-99,0.0,110.0,0.7,19.8,81,-99,-99,1.0,1.6
何竹子腳,23.53641,120.38203,C2M9D0,2026-02-24T16:10:00+08:00,嘉義縣,民雄鄉,2026-02-24 16:27:26.158756,陰,-99,-99,0.0,350.0,4.0,23.5,78,-99,-99,4.0,6.6
紫雲,23.494914,120.540253,C2M9C0,2026-02-24T16:10:00+08:00,嘉義縣,竹崎鄉,2026-02-24 16:27:26.158760,陰,-99,-99,0.0,330.0,2.8,24.7,70,-99,-99,3.0,7.0
旺來山,23.555153,120.486463,C2M9E0,2026-02-24T16:10:00+08:00,嘉義縣,民雄鄉,2026-02-24 16:27:26.158764,陰,-99,-99,-99,360.0,4.8,23.8,73,-99,-99,5.0,7.0
西興,23.2428,120.57617,C2M9B0,2026-02-24T16:10:00+08:00,嘉義縣,大埔鄉,2026-02-24 16:27:26.158767,多雲,-99,-99,0.0,260.0,1.9,26.1,60,-99,-99,2.4,4.5
烏樹,23.32393,120.36989,C2N190,2026-02-24T16:10:00+08:00,臺南市,後壁區,2026-02-24 16:27:26.158771,陰,-99,-99,0.0,320.0,3.9,25.5,72,-99,-99,4.9,7.3
鹿陶洋,23.14325,120.48352,C2N180,2026-02-24T16:10:00+08:00,臺南市,楠西區,2026-02-24 16:27:26.158775,多雲,-99,-99,0.0,300.0,1.8,28.0,58,-99,-99,2.4,6.2
匏子寮,23.04905,120.55319,C2V920,2026-02-24T16:10:00+08:00,高雄市,甲仙區,2026-02-24 16:27:26.158779,多雲,-99,-99,0.0,310.0,3.6,26.5,61,-99,-99,3.9,6.9
瑞山,22.90304,120.43424,C2V580,2026-02-24T16:10:00+08:00,高雄市,內門區,2026-02-24 16:27:26.158783,陰,-99,-99,0.0,310.0,2.4,26.1,65,-99,-99,3.6,6.1
高士國小,22.12553,120.84653,C2R9A0,2026-02-24T16:10:00+08:00,屏東縣,牡丹鄉,2026-02-24 16:27:26.158787,晴,-99,-99,0.0,40.0,0.9,25.2,76,-99,-99,1.9,4.2
奮起湖,23.493903,120.699253,C2M530,2026-02-24T16:10:00+08:00,嘉義縣,竹崎鄉,2026-02-24 16:27:26.158790,陰,-99,-99,0.0,210.0,0.7,16.5,95,-99,-99,0.9,2.2
里佳,23.389125,120.716647,C2M810,2026-02-24T16:10:00+08:00,嘉義縣,阿里山鄉,2026-02-24 16:27:26.158794,多雲,-99,-99,0.0,280.0,0.5,18.1,89,-99,-99,1.9,4.1
觀音,25.027072,121.153317,C2C590,2026-02-24T16:10:00+08:00,桃園市,觀音區,2026-02-24 16:27:26.158798,陰,-99,-99,0.0,350.0,0.6,22.3,83,-99,-99,0.7,1.3
竹南,24.70898,120.88897,C2E420,2026-02-24T16:10:00+08:00,苗栗縣,竹南鎮,2026-02-24 16:27:26.158802,陰,-99,-99,0.0,350.0,0.1,21.9,85,-99,-99,1.3,2.4
南庄,24.601775,121.000214,C2E430,2026-02-24T16:10:00+08:00,苗栗縣,南庄鄉,2026-02-24 16:27:26.158806,陰,-99,-99,0.0,140.0,0.4,20.3,93,-99,-99,1.2,2.0
畜試所澎湖,23.628342,119.513206,C2W230,2026-02-24T16:10:00+08:00,澎湖縣,西嶼鄉,2026-02-24 16:27:26.158810,陰,-99,-99,0.0,20.0,2.1,22.4,84,-99,-99,2.6,5.0
三義,24.405478,120.749819,C2E880,2026-02-24T16:10:00+08:00,苗栗縣,三義鄉,2026-02-24 16:27:26.158813,陰,-99,-99,0.0,50.0,2.5,18.7,91,-99,-99,2.6,5.0
烏石坑,24.273503,120.947617,C2FA00,2026-02-24T16:10:00+08:00,臺中市,和平區,2026-02-24 16:27:26.158817,陰,-99,-99,0.0,20.0,0.6,17.2,95,-99,-99,1.2,2.7
中竹林,24.103556,120.751061,C2F9A0,2026-02-24T16:10:00+08:00,臺中市,太平區,2026-02-24 16:27:26.158821,陰,-99,-99,0.0,340.0,0.8,20.3,86,-99,-99,1.7,4.0
北斗,23.877586,120.514222,C2G840,2026-02-24T16:10:00+08:00,彰化縣,北斗鎮,2026-02-24 16:27:26.158832,陰,-99,-99,0.0,10.0,1.3,23.1,78,-99,-99,2.1,5.0
中寮,23.884447,120.766406,C2H950,2026-02-24T16:10:00+08:00,南投縣,中寮鄉,2026-02-24 16:27:26.158838,陰,-99,-99,0.0,300.0,1.3,23.0,73,-99,-99,1.6,4.0
鳳凰,23.728081,120.787347,C2I090,2026-02-24T16:10:00+08:00,南投縣,鹿谷鄉,2026-02-24 16:27:26.158842,陰,-99,-99,0.0,280.0,1.1,17.3,95,-99,-99,2.0,3.6
梨山,24.247522,121.243669,C2F860,2026-02-24T16:10:00+08:00,臺中市,和平區,2026-02-24 16:27:26.158846,陰,-99,-99,0.0,210.0,2.4,11.5,82,-99,-99,3.5,7.0
草嶺,23.59555,120.693461,C2K240,2026-02-24T16:10:00+08:00,雲林縣,古坑鄉,2026-02-24 16:27:26.158850,陰,-99,-99,0.0,320.0,3.0,16.8,97,-99,-99,4.0,6.0
大湖,24.414939,120.870872,C2E520,2026-02-24T16:10:00+08:00,苗栗縣,大湖鄉,2026-02-24 16:27:26.158854,陰,-99,-99,0.0,330.0,0.5,21.1,82,-99,-99,0.9,2.7
大肚,24.15295,120.572117,C2F000,2026-02-24T16:10:00+08:00,臺中市,大肚區,2026-02-24 16:27:26.158858,陰,-99,-99,0.0,30.0,1.6,20.6,83,-99,-99,2.2,4.8
龍溪,24.606489,120.783933,C2E540,2026-02-24T16:10:00+08:00,苗栗縣,後龍鎮,2026-02-24 16:27:26.158862,陰,-99,-99,0.0,0.0,0.1,21.1,86,-99,-99,1.6,2.2
大甲,24.347667,120.640403,C2F930,2026-02-24T16:10:00+08:00,臺中市,大甲區,2026-02-24 16:27:26.158865,陰,-99,-99,0.0,340.0,0.3,22.1,80,-99,-99,0.4,2.0
芳苑,23.922303,120.320025,C2G870,2026-02-24T16:10:00+08:00,彰化縣,芳苑鄉,2026-02-24 16:27:26.158869,陰,-99,-99,0.0,360.0,2.2,22.3,85,-99,-99,3.5,6.5
鹿港,24.0753,120.430481,C2G640,2026-02-24T16:10:00+08:00,彰化縣,鹿港鎮,2026-02-24 16:27:26.158873,陰,-99,-99,0.0,360.0,2.4,22.3,83,-99,-99,3.4,5.8
嘉義大學,23.471325,120.485903,C2M910,2026-02-24T16:10:00+08:00,嘉義市,東區,2026-02-24 16:27:26.158877,陰,-99,-99,0.0,350.0,2.1,24.5,74,-99,-99,2.5,5.9
安南,23.076694,120.144861,C2O950,2026-02-24T16:10:00+08:00,臺南市,安南區,2026-02-24 16:27:26.158881,陰,-99,-99,0.0,330.0,3.0,24.9,77,-99,-99,3.1,5.3
馬頭山,23.324361,120.582017,C2M410,2026-02-24T16:10:00+08:00,嘉義縣,大埔鄉,2026-02-24 16:27:26.158885,陰,-99,-99,0.0,330.0,3.2,25.4,65,-99,-99,4.0,7.4
曾文,23.219681,120.497328,C2O810,2026-02-24T16:10:00+08:00,臺南市,楠西區,2026-02-24 16:27:26.158888,多雲,-99,-99,0.0,270.0,0.6,27.2,61,-99,-99,1.7,5.8
玉井,23.126042,120.46055,C2O930,2026-02-24T16:10:00+08:00,臺南市,玉井區,2026-02-24 16:27:26.158892,多雲,-99,-99,0.0,290.0,1.3,29.2,57,-99,-99,1.5,5.4
月眉,22.971003,120.539853,C2V260,2026-02-24T16:10:00+08:00,高雄市,杉林區,2026-02-24 16:27:26.158896,多雲,-99,-99,0.0,250.0,2.0,27.0,65,-99,-99,3.4,6.5
甲仙,23.080106,120.591758,C2V250,2026-02-24T16:10:00+08:00,高雄市,甲仙區,2026-02-24 16:27:26.158900,多雲,-99,-99,0.0,300.0,1.3,27.3,60,-99,-99,1.3,3.7
西拉雅風管處,23.189481,120.335297,C2N160,2026-02-24T16:10:00+08:00,臺南市,官田區,2026-02-24 16:27:26.158904,多雲,-99,-99,0.0,300.0,3.1,26.1,67,-99,-99,2.6,6.5
富貴角,25.263783,121.565258,C2A920,2026-02-24T16:10:00+08:00,新北市,石門區,2026-02-24 16:27:26.158908,陰,-99,-99,0.0,250.0,0.8,21.1,84,-99,-99,1.3,3.1
福隆,25.017842,121.942083,C2A880,2026-02-24T16:10:00+08:00,新北市,貢寮區,2026-02-24 16:27:26.158911,陰,-99,-99,0.0,140.0,0.8,22.5,83,-99,-99,1.0,2.5
四堵,24.8926,121.745736,C2A540,2026-02-24T16:10:00+08:00,新北市,坪林區,2026-02-24 16:27:26.158915,陰,-99,-99,0.0,0.0,0.2,20.9,79,-99,-99,0.6,2.1
福山,24.776203,121.502811,C2A560,2026-02-24T16:10:00+08:00,新北市,烏來區,2026-02-24 16:27:26.158919,陰,-99,-99,0.0,0.0,0.1,20.6,85,-99,-99,1.3,3.4
關西工作站,24.757275,121.184792,C2D720,2026-02-24T16:10:00+08:00,新竹縣,關西鎮,2026-02-24 16:27:26.158923,陰,-99,-99,0.0,0.0,0.1,21.4,91,-99,-99,0.6,1.0
寶山農場,24.732444,120.976153,C2D730,2026-02-24T16:10:00+08:00,新竹縣,寶山鄉,2026-02-24 16:27:26.158927,陰,-99,-99,0.0,30.0,0.5,21.3,87,-99,-99,0.6,1.7
屯原,24.067969,121.209389,C2H9K0,2026-02-24T16:10:00+08:00,南投縣,仁愛鄉,2026-02-24 16:27:26.158931,陰,-99,-99,0.0,60.0,1.3,12.8,85,-99,-99,4.5,5.5
田頭村,23.8263,120.444175,C2G980,2026-02-24T16:10:00+08:00,彰化縣,竹塘鄉,2026-02-24 16:27:26.158934,陰,-99,-99,0.0,360.0,1.2,23.1,78,-99,-99,2.2,5.0
草嶺石壁,23.602469,120.707731,C2K610,2026-02-24T16:10:00+08:00,雲林縣,古坑鄉,2026-02-24 16:27:26.158938,陰,-99,-99,0.0,300.0,1.0,17.6,91,-99,-99,2.0,3.5
摩天嶺,24.322458,120.936819,C2F990,2026-02-24T16:10:00+08:00,臺中市,和平區,2026-02-24 16:27:26.158942,陰,-99,-99,0.0,140.0,2.2,16.6,97,-99,-99,2.0,3.5
朴子農改,23.469889,120.259383,C2M920,2026-02-24T16:10:00+08:00,嘉義縣,朴子市,2026-02-24 16:27:26.158946,陰,-99,-99,0.0,350.0,4.0,24.7,74,-99,-99,5.4,7.4
瑞里,23.545133,120.675197,C2M620,2026-02-24T16:10:00+08:00,嘉義縣,梅山鄉,2026-02-24 16:27:26.158950,陰,-99,-99,0.0,310.0,1.3,16.2,98,-99,-99,2.2,3.5
瑞芳,25.113169,121.801147,C2A660,2026-02-24T16:10:00+08:00,新北市,瑞芳區,2026-02-24 16:27:26.158954,陰,-99,-99,0.0,40.0,0.5,23.0,78,-99,-99,0.9,1.8
火燒寮,25.002719,121.742892,C2A650,2026-02-24T16:10:00+08:00,新北市,平溪區,2026-02-24 16:27:26.158957,陰,-99,-99,0.0,0.0,0.2,21.8,81,-99,-99,0.9,1.6
大坪頂農水,24.043122,120.932781,C2H9W0,2026-02-24T16:10:00+08:00,南投縣,埔里鎮,2026-02-24 16:27:26.158961,陰,-99,-99,0.0,280.0,2.6,20.3,77,-99,-99,3.2,5.7
馬光農場,23.721453,120.378864,C2K620,2026-02-24T16:10:00+08:00,雲林縣,虎尾鎮,2026-02-24 16:27:26.158965,陰,-99,-99,0.0,360.0,3.6,22.5,80,-99,-99,5.0,7.3
出雲,24.206469,120.902794,C2FB50,2026-02-24T16:10:00+08:00,臺中市,和平區,2026-02-24 16:27:26.158969,陰,-99,-99,0.0,360.0,1.1,16.2,93,-99,-99,1.3,2.7
頭櫃山,24.129842,120.858925,C2FB60,2026-02-24T16:10:00+08:00,臺中市,新社區,2026-02-24 16:27:26.158973,陰,-99,-99,0.0,300.0,5.0,15.2,99,-99,-99,6.0,7.7
三隻寮,24.093078,120.861578,C2H9D0,2026-02-24T16:10:00+08:00,南投縣,國姓鄉,2026-02-24 16:27:26.158976,陰,-99,-99,0.0,290.0,1.1,20.4,79,-99,-99,1.3,3.5
國姓南港,23.911108,120.846556,C2H9E0,2026-02-24T16:10:00+08:00,南投縣,國姓鄉,2026-02-24 16:27:26.158980,陰,-99,-99,0.0,280.0,2.7,15.5,100,-99,-99,3.4,6.3
柑林,24.018658,120.847072,C2H9F0,2026-02-24T16:10:00+08:00,南投縣,國姓鄉,2026-02-24 16:27:26.158984,陰,-99,-99,0.0,180.0,1.5,22.8,75,-99,-99,3.2,8.4
百勝,24.051142,120.909361,C2H9G0,2026-02-24T16:10:00+08:00,南投縣,國姓鄉,2026-02-24 16:27:26.158988,陰,-99,-99,0.0,280.0,0.9,22.1,72,-99,-99,1.3,3.7
石卓,23.478744,120.702264,C2M930,2026-02-24T16:10:00+08:00,嘉義縣,竹崎鄉,2026-02-24 16:27:26.158996,陰,-99,-99,0.0,250.0,0.8,16.6,90,-99,-99,1.6,3.5
日野賀,23.434056,120.727169,C2M940,2026-02-24T16:10:00+08:00,嘉義縣,阿里山鄉,2026-02-24 16:27:26.159000,多雲,-99,-99,0.0,80.0,1.3,19.5,82,-99,-99,2.7,6.5
太和,23.538372,120.702961,C2M950,2026-02-24T16:10:00+08:00,嘉義縣,梅山鄉,2026-02-24 16:27:26.159004,陰,-99,-99,0.0,350.0,1.3,15.7,97,-99,-99,3.1,4.5
荷苞,23.657717,120.595144,C2K630,2026-02-24T16:10:00+08:00,雲林縣,古坑鄉,2026-02-24 16:27:26.159007,陰,-99,-99,0.0,350.0,1.6,23.3,73,-99,-99,2.6,4.9
苗改南投蜂場,23.852589,120.693481,C2H9H0,2026-02-24T16:10:00+08:00,南投縣,名間鄉,2026-02-24 16:27:26.159011,陰,-99,-99,0.0,340.0,2.5,23.2,73,-99,-99,3.1,5.4
畜試所彰化,23.86045,120.557964,C2G9A0,2026-02-24T16:10:00+08:00,彰化縣,北斗鎮,2026-02-24 16:27:26.159015,陰,-99,-99,0.0,10.0,2.6,23.5,72,-99,-99,2.7,5.2
八甲,24.535811,120.795983,C2E970,2026-02-24T16:10:00+08:00,苗栗縣,苗栗市,2026-02-24 16:27:26.159019,陰,-99,-99,0.0,10.0,0.6,20.6,89,-99,-99,1.6,3.0
中台,23.9996,120.938739,C2H9J0,2026-02-24T16:10:00+08:00,南投縣,埔里鎮,2026-02-24 16:27:26.159023,陰,-99,-99,0.0,270.0,1.7,21.0,75,-99,-99,2.4,5.0
馬烈霸,24.1512,121.201772,C2H9L0,2026-02-24T16:10:00+08:00,南投縣,仁愛鄉,2026-02-24 16:27:26.159027,陰,-99,-99,0.0,130.0,1.3,13.8,76,-99,-99,1.5,2.9
發祥,24.154094,121.164517,C2H9M0,2026-02-24T16:10:00+08:00,南投縣,仁愛鄉,2026-02-24 16:27:26.159030,陰,-99,-99,0.0,110.0,0.5,19.8,61,-99,-99,1.8,3.2
仁愛東眼,24.026875,121.1205,C2H9N0,2026-02-24T16:10:00+08:00,南投縣,仁愛鄉,2026-02-24 16:27:26.159034,陰,-99,-99,0.0,240.0,5.0,15.9,88,-99,-99,4.4,6.0
伊拿谷,23.963211,121.088264,C2H9P0,2026-02-24T16:10:00+08:00,南投縣,仁愛鄉,2026-02-24 16:27:26.159038,陰,-99,-99,0.0,190.0,0.9,21.4,66,-99,-99,2.4,4.4
北東眼山,24.120939,121.189303,C2H9Q0,2026-02-24T16:10:00+08:00,南投縣,仁愛鄉,2026-02-24 16:27:26.159042,陰,-99,-99,0.0,360.0,0.4,13.2,79,-99,-99,0.6,1.5
卓社,23.887894,121.000086,C2H9R0,2026-02-24T16:10:00+08:00,南投縣,仁愛鄉,2026-02-24 16:27:26.159046,陰,-99,-99,0.0,320.0,1.0,17.1,88,-99,-99,1.7,4.0
龍南,23.953536,120.833183,C2H9S0,2026-02-24T16:10:00+08:00,南投縣,國姓鄉,2026-02-24 16:27:26.159050,陰,-99,-99,0.0,290.0,4.2,16.5,90,-99,-99,3.7,6.3
屏科大,22.648275,120.619247,C2R970,2026-02-24T16:10:00+08:00,屏東縣,內埔鄉,2026-02-24 16:27:26.159055,陰,-99,-99,0.0,300.0,2.5,28.6,58,-99,-99,3.2,6.4
名間竹圍,23.859914,120.637572,C2H9T0,2026-02-24T16:10:00+08:00,南投縣,名間鄉,2026-02-24 16:27:26.159059,陰,-99,-99,0.0,330.0,1.0,21.5,79,-99,-99,2.2,4.0
鳳鵬,23.763919,120.788061,C2H9U0,2026-02-24T16:10:00+08:00,南投縣,鹿谷鄉,2026-02-24 16:27:26.159063,陰,-99,-99,0.0,310.0,0.6,22.4,74,-99,-99,0.9,2.2
國一N174K,24.2049,120.6552,CAF010,2026-02-24T16:10:00+08:00,臺中市,西屯區,2026-02-24 16:27:26.159067,陰,16-20,-99,0.0,350.0,2.4,21.6,85,-99,-99,3.5,6.2
國一N198K,24.063889,120.523056,CAG010,2026-02-24T16:10:00+08:00,彰化縣,彰化市,2026-02-24 16:27:26.159070,陰,-99,-99,0.0,20.0,2.7,22.2,84,-99,-99,4.4,7.3
國一N234K,23.74633,120.467926,CAJ020,2026-02-24T16:10:00+08:00,雲林縣,西螺鎮,2026-02-24 16:27:26.159074,陰,16-20,-99,0.0,20.0,5.9,22.3,76,-99,-99,5.5,7.5
國一N250K,23.610292,120.436867,CAL010,2026-02-24T16:10:00+08:00,嘉義縣,大林鎮,2026-02-24 16:27:26.159078,陰,-99,-99,0.0,360.0,5.0,23.5,87,-99,-99,5.5,8.0
國一S105K,24.726316,120.940643,CAD010,2026-02-24T16:10:00+08:00,新竹縣,寶山鄉,2026-02-24 16:27:26.159082,陰,7-10,-99,0.0,70.0,1.1,22.1,91,-99,-99,1.0,2.7
國一S114K,24.668836,120.885811,CAE020,2026-02-24T16:10:00+08:00,苗栗縣,頭份市,2026-02-24 16:27:26.159086,陰,-99,-99,0.0,130.0,1.0,21.5,84,-99,-99,1.8,4.3
國一S123K,24.59594,120.86071,CAE030,2026-02-24T16:10:00+08:00,苗栗縣,頭屋鄉,2026-02-24 16:27:26.159090,陰,-99,-99,0.0,10.0,0.6,21.3,84,-99,-99,1.3,2.6
國一S132K,24.524506,120.820831,CAE040,2026-02-24T16:10:00+08:00,苗栗縣,公館鄉,2026-02-24 16:27:26.159093,陰,7-10,-99,0.0,20.0,1.3,21.5,83,-99,-99,2.7,4.7
國一S152K,24.375492,120.749184,CAE050,2026-02-24T16:10:00+08:00,苗栗縣,三義鄉,2026-02-24 16:27:26.159097,陰,21-30,-99,0.0,30.0,3.0,21.1,79,-99,-99,3.6,5.8
國一S162K,24.295534,120.695976,CAF020,2026-02-24T16:10:00+08:00,臺中市,后里區,2026-02-24 16:27:26.159101,陰,-99,-99,0.0,350.0,2.5,21.2,79,-99,-99,3.2,5.2
國一S169K,24.237116,120.688271,CAF030,2026-02-24T16:10:00+08:00,臺中市,神岡區,2026-02-24 16:27:26.159105,陰,-99,-99,0.0,340.0,2.6,21.3,86,-99,-99,3.7,5.9
國一S188K,24.118546,120.585747,CAF040,2026-02-24T16:10:00+08:00,臺中市,大肚區,2026-02-24 16:27:26.159109,陰,-99,-99,0.0,360.0,1.7,22.7,75,-99,-99,4.3,7.2
國一S207K,23.988304,120.508092,CAG030,2026-02-24T16:10:00+08:00,彰化縣,大村鄉,2026-02-24 16:27:26.159113,陰,7-10,-99,0.0,360.0,4.2,22.6,79,-99,-99,5.3,7.0
國三N119K,24.675432,120.847389,CAE060,2026-02-24T16:10:00+08:00,苗栗縣,竹南鎮,2026-02-24 16:27:26.159116,陰,16-20,-99,0.0,310.0,0.9,21.8,90,-99,-99,2.2,3.0
國三N151K,24.440218,120.681656,CAE070,2026-02-24T16:10:00+08:00,苗栗縣,苑裡鎮,2026-02-24 16:27:26.159120,陰,-99,-99,0.0,50.0,1.8,21.8,78,-99,-99,2.6,3.7
國三N191K,24.139256,120.5215,CAG040,2026-02-24T16:10:00+08:00,彰化縣,和美鎮,2026-02-24 16:27:26.159124,陰,-99,-99,0.0,30.0,2.9,21.5,86,-99,-99,4.5,6.2
國三N196K,24.107155,120.554482,CAG050,2026-02-24T16:10:00+08:00,彰化縣,彰化市,2026-02-24 16:27:26.159128,陰,7-10,-99,0.0,360.0,3.0,21.8,80,-99,-99,4.3,6.0
國三N208K,24.066147,120.660919,CAF050,2026-02-24T16:10:00+08:00,臺中市,霧峰區,2026-02-24 16:27:26.159132,陰,-99,-99,0.0,350.0,3.0,22.6,82,-99,-99,4.5,6.2
國一S144K,24.437042,120.778219,CAE560,2026-02-24T16:10:00+08:00,苗栗縣,銅鑼鄉,2026-02-24 16:27:26.159136,陰,7-10,-99,0.0,360.0,1.6,20.5,83,-99,-99,2.7,4.8
國一N158K,24.332372,120.717144,CAF950,2026-02-24T16:10:00+08:00,臺中市,后里區,2026-02-24 16:27:26.159139,陰,7-10,-99,0.0,10.0,1.3,21.6,83,-99,-99,4.5,6.3
國三S175K,24.251494,120.589683,CAF960,2026-02-24T16:10:00+08:00,臺中市,沙鹿區,2026-02-24 16:27:26.159143,陰,7-10,-99,0.0,360.0,1.8,21.3,80,-99,-99,3.6,6.0
國三N183K,24.193628,120.570311,CAF980,2026-02-24T16:10:00+08:00,臺中市,龍井區,2026-02-24 16:27:26.159147,陰,7-10,-99,0.0,10.0,1.8,21.3,83,-99,-99,2.9,4.8
國三N223K,23.955116,120.662376,CAH010,2026-02-24T16:10:00+08:00,南投縣,草屯鎮,2026-02-24 16:27:26.159152,陰,21-30,-99,0.0,340.0,3.7,22.5,75,-99,-99,5.3,7.2
國三N252K,23.77412,120.64061,CAJ010,2026-02-24T16:10:00+08:00,雲林縣,林內鄉,2026-02-24 16:27:26.159156,陰,7-10,-99,0.0,290.0,2.2,23.0,86,-99,-99,4.0,6.9
國三S140K,24.522345,120.725006,CAE080,2026-02-24T16:10:00+08:00,苗栗縣,通霄鎮,2026-02-24 16:27:26.159160,陰,7-10,-99,0.0,20.0,1.5,21.3,82,-99,-99,2.0,3.2
國三S156K,24.39798,120.669487,CAE090,2026-02-24T16:10:00+08:00,苗栗縣,苑裡鎮,2026-02-24 16:27:26.159164,陰,-99,-99,0.0,40.0,2.5,22.1,78,-99,-99,3.1,3.9
國三S168K,24.308519,120.614471,CAF060,2026-02-24T16:10:00+08:00,臺中市,清水區,2026-02-24 16:27:26.159169,陰,11-15,-99,0.0,350.0,1.2,21.3,82,-99,-99,2.6,3.7
國三S202K,24.092468,120.603256,CAG060,2026-02-24T16:10:00+08:00,彰化縣,彰化市,2026-02-24 16:27:26.159173,陰,-99,-99,0.0,350.0,2.7,22.8,77,-99,-99,2.7,6.8
國三S217K,24.00683,120.653214,CAH020,2026-02-24T16:10:00+08:00,南投縣,草屯鎮,2026-02-24 16:27:26.159177,陰,-99,-99,0.0,360.0,2.7,23.0,82,-99,-99,4.7,6.5
國四E5K,24.296465,120.643135,CAF090,2026-02-24T16:10:00+08:00,臺中市,神岡區,2026-02-24 16:27:26.159181,陰,-99,-99,0.0,300.0,1.0,21.8,87,-99,-99,1.7,4.2
國三甲005K,25.00194,121.5975,CAA090,2026-02-24T16:10:00+08:00,臺北市,文山區,2026-02-24 16:27:26.159185,陰,21-30,-99,0.0,220.0,0.9,24.0,76,-99,-99,2.4,3.7
國二E009K,25.018244,121.273697,CAC020,2026-02-24T16:10:00+08:00,桃園市,桃園區,2026-02-24 16:27:26.159188,陰,16-20,-99,0.0,10.0,1.1,23.0,79,-99,-99,1.2,2.2
國三N002K,25.14583,121.7217,CAB050,2026-02-24T16:10:00+08:00,基隆市,中山區,2026-02-24 16:27:26.159192,陰,-99,-99,0.0,0.0,0.2,21.5,87,-99,-99,0.9,2.2
國三S004K,25.11444,121.6886,CAB030,2026-02-24T16:10:00+08:00,基隆市,七堵區,2026-02-24 16:27:26.159196,陰,-99,-99,0.0,50.0,0.6,22.5,81,-99,-99,1.3,3.0
國三S007K,25.09694,121.6678,CAB040,2026-02-24T16:10:00+08:00,基隆市,七堵區,2026-02-24 16:27:26.159200,陰,7-10,-99,0.0,80.0,1.3,23.1,83,-99,-99,1.3,2.7
國三S010K,25.08,121.6475,CAA030,2026-02-24T16:10:00+08:00,新北市,汐止區,2026-02-24 16:27:26.159204,陰,-99,-99,0.0,20.0,0.6,24.3,64,-99,-99,1.2,2.7
國三S016K,25.03306,121.6158,CAA040,2026-02-24T16:10:00+08:00,臺北市,南港區,2026-02-24 16:27:26.159208,陰,-99,-99,0.0,360.0,0.8,23.7,75,-99,-99,1.8,4.2
國三S037K,24.982361,121.471042,CAA050,2026-02-24T16:10:00+08:00,新北市,土城區,2026-02-24 16:27:26.159212,陰,-99,-99,0.0,230.0,0.6,23.8,75,-99,-99,1.6,3.1
國三S042K,24.96,121.4306,CAA060,2026-02-24T16:10:00+08:00,新北市,土城區,2026-02-24 16:27:26.159216,陰,7-10,-99,0.0,190.0,0.9,23.5,80,-99,-99,1.3,4.0
國三N046K,24.95083,121.3958,CAA070,2026-02-24T16:10:00+08:00,新北市,樹林區,2026-02-24 16:27:26.159219,陰,-99,-99,0.0,320.0,0.9,24.0,75,-99,-99,2.7,3.7
國一N039K,25.064433,121.381972,CAA990,2026-02-24T16:10:00+08:00,新北市,泰山區,2026-02-24 16:27:26.159223,陰,21-30,-99,0.0,280.0,0.6,22.1,78,-99,-99,1.2,3.2
國一高架N063K,24.950281,121.196314,CAC760,2026-02-24T16:10:00+08:00,桃園市,平鎮區,2026-02-24 16:27:26.159227,陰,21-30,-99,0.0,320.0,0.8,22.0,81,-99,-99,1.8,3.1
國三N077K,24.797294,121.190033,CAD710,2026-02-24T16:10:00+08:00,新竹縣,關西鎮,2026-02-24 16:27:26.159231,陰,7-10,-99,0.0,170.0,0.5,21.8,84,-99,-99,1.3,3.0
國三N072K,24.836391,121.199371,CAC770,2026-02-24T16:10:00+08:00,桃園市,龍潭區,2026-02-24 16:27:26.159235,陰,7-10,-99,0.0,20.0,0.4,21.3,83,-99,-99,1.6,3.1
國五S005K,24.996414,121.651931,CAAD60,2026-02-24T16:10:00+08:00,新北市,石碇區,2026-02-24 16:27:26.159239,陰,7-10,-99,0.0,10.0,0.4,23.1,70,-99,-99,2.0,3.5
國五S006K,24.989964,121.656972,CAAD70,2026-02-24T16:10:00+08:00,新北市,石碇區,2026-02-24 16:27:26.159242,陰,7-10,-99,0.0,10.0,0.4,23.0,81,-99,-99,2.2,3.5
國五N008K,24.982411,121.668089,CAAD80,2026-02-24T16:10:00+08:00,新北市,石碇區,2026-02-24 16:27:26.159246,陰有靄,7-10,-99,0.0,350.0,0.5,22.5,80,-99,-99,1.8,3.5
國五N013K,24.947603,121.705508,CAAD90,2026-02-24T16:10:00+08:00,新北市,坪林區,2026-02-24 16:27:26.159250,陰,7-10,-99,0.0,120.0,0.4,22.2,84,-99,-99,1.3,3.2
國五S031K,24.819144,121.782378,CAUB30,2026-02-24T16:10:00+08:00,宜蘭縣,礁溪鄉,2026-02-24 16:27:26.159254,陰,>30,-99,0.0,40.0,5.0,24.0,81,-99,-99,4.7,6.8
國五S041K,24.734764,121.781922,CAUB40,2026-02-24T16:10:00+08:00,宜蘭縣,壯圍鄉,2026-02-24 16:27:26.159258,陰,-99,-99,0.0,40.0,3.6,23.7,85,-99,-99,3.5,5.4
國五S047K,24.675456,121.794583,CAUB50,2026-02-24T16:10:00+08:00,宜蘭縣,羅東鎮,2026-02-24 16:27:26.159263,陰,-99,-99,0.5,330.0,3.7,23.8,80,-99,-99,3.7,5.0
國三S054K,24.93917,121.3239,CAA080,2026-02-24T16:10:00+08:00,新北市,鶯歌區,2026-02-24 16:27:26.159267,陰,21-30,-99,0.0,150.0,0.5,23.6,78,-99,-99,1.3,2.9
國三N063K,24.889514,121.2636,CAC030,2026-02-24T16:10:00+08:00,桃園市,大溪區,2026-02-24 16:27:26.159271,陰,-99,-99,0.0,220.0,1.0,22.5,78,-99,-99,1.7,3.6
國三N085K,24.78333,121.1211,CAD080,2026-02-24T16:10:00+08:00,新竹縣,關西鎮,2026-02-24 16:27:26.159275,陰,21-30,-99,0.0,220.0,0.6,21.8,86,-99,-99,1.0,3.2
國三S103K,24.75861,120.9608,CAD090,2026-02-24T16:10:00+08:00,新竹市,東區,2026-02-24 16:27:26.159279,陰,7-10,-99,0.0,60.0,1.6,21.8,85,-99,-99,1.8,3.7
國一S001K,25.11583,121.7286,CAB010,2026-02-24T16:10:00+08:00,基隆市,安樂區,2026-02-24 16:27:26.159283,陰,11-15,-99,0.0,20.0,1.0,22.3,86,-99,-99,2.2,3.9
國一S006K,25.08694,121.6869,CAB020,2026-02-24T16:10:00+08:00,基隆市,七堵區,2026-02-24 16:27:26.159287,陰,-99,-99,0.0,10.0,1.7,23.5,80,-99,-99,2.4,3.4
國一N013K,25.066739,121.628153,CAA010,2026-02-24T16:10:00+08:00,新北市,汐止區,2026-02-24 16:27:26.159290,陰,-99,-99,0.0,270.0,1.8,24.6,72,-99,-99,1.8,3.7
國一S026K,25.07639,121.4964,CAA020,2026-02-24T16:10:00+08:00,新北市,三重區,2026-02-24 16:27:26.159294,陰,7-10,-99,0.0,30.0,1.1,23.8,71,-99,-99,1.2,3.2
國一S072K,24.89583,121.1342,CAC010,2026-02-24T16:10:00+08:00,桃園市,楊梅區,2026-02-24 16:27:26.159298,陰,7-10,-99,0.0,340.0,0.8,21.2,82,-99,-99,1.3,1.8
國一N077K,24.885,121.0889,CAD020,2026-02-24T16:10:00+08:00,新竹縣,湖口鄉,2026-02-24 16:27:26.159302,陰,-99,-99,0.0,250.0,0.9,21.5,83,-99,-99,2.2,4.4
國一S082K,24.87667,121.0467,CAD030,2026-02-24T16:10:00+08:00,新竹縣,湖口鄉,2026-02-24 16:27:26.159306,陰,-99,-99,0.0,20.0,0.4,21.6,79,-99,-99,1.2,2.1
國一S088K,24.84444,121.0214,CAD040,2026-02-24T16:10:00+08:00,新竹縣,竹北市,2026-02-24 16:27:26.159311,陰,21-30,-99,0.0,80.0,0.6,23.1,81,-99,-99,1.2,3.1
國一N094K,24.79778,121.0089,CAD050,2026-02-24T16:10:00+08:00,新竹市,東區,2026-02-24 16:27:26.159315,陰,-99,-99,0.0,350.0,1.2,23.1,74,-99,-99,1.3,2.6
國一S098K,24.76056,120.9911,CAD060,2026-02-24T16:10:00+08:00,新竹縣,寶山鄉,2026-02-24 16:27:26.159319,陰,-99,-99,0.0,330.0,0.6,22.5,84,-99,-99,1.3,1.8
國一S262K,23.512333,120.403038,CAL020,2026-02-24T16:10:00+08:00,嘉義縣,民雄鄉,2026-02-24 16:27:26.159323,陰,7-10,-99,0.0,340.0,4.8,22.8,90,-99,-99,6.5,8.6
國一N268K,23.460833,120.375833,CAL030,2026-02-24T16:10:00+08:00,嘉義縣,水上鄉,2026-02-24 16:27:26.159327,陰,-99,-99,0.0,340.0,2.2,23.6,88,-99,-99,5.7,8.4
國一N273K,23.416666,120.355,CAL040,2026-02-24T16:10:00+08:00,嘉義縣,水上鄉,2026-02-24 16:27:26.159331,陰,-99,-99,0.0,350.0,5.0,24.1,87,-99,-99,5.5,8.1
國一N288K,23.30609,120.290033,CAN010,2026-02-24T16:10:00+08:00,臺南市,新營區,2026-02-24 16:27:26.159334,多雲,>30,-99,0.0,350.0,2.4,25.2,74,-99,-99,3.7,7.9
國一S306K,23.152831,120.230558,CAN020,2026-02-24T16:10:00+08:00,臺南市,麻豆區,2026-02-24 16:27:26.159338,多雲,7-10,-99,0.0,310.0,3.7,24.1,76,-99,-99,4.4,6.7
國一N323K,23.011789,120.249453,CAN040,2026-02-24T16:10:00+08:00,臺南市,永康區,2026-02-24 16:27:26.159342,陰,-99,-99,0.0,310.0,2.6,25.8,80,-99,-99,2.7,5.0
國一S342K,22.845555,120.295,CAP010,2026-02-24T16:10:00+08:00,高雄市,路竹區,2026-02-24 16:27:26.159346,陰,-99,-99,0.0,290.0,2.6,25.8,82,-99,-99,3.2,5.4
國一S346K,22.812222,120.314166,CAP020,2026-02-24T16:10:00+08:00,高雄市,岡山區,2026-02-24 16:27:26.159350,陰,-99,-99,0.0,260.0,1.0,26.3,79,-99,-99,1.3,3.5
國一N351K,22.765833,120.328888,CAP030,2026-02-24T16:10:00+08:00,高雄市,橋頭區,2026-02-24 16:27:26.159354,陰,-99,-99,-99,-99,-99,-99,-99,-99,-99,-99,-99
國一N361K,22.680555,120.328611,CAP040,2026-02-24T16:10:00+08:00,高雄市,仁武區,2026-02-24 16:27:26.159358,陰,7-10,-99,0.0,280.0,3.2,25.6,83,-99,-99,4.2,6.2
國三N279K,23.596111,120.523333,CAL050,2026-02-24T16:10:00+08:00,嘉義縣,大林鎮,2026-02-24 16:27:26.159361,陰,16-20,-99,0.0,10.0,3.0,23.5,83,-99,-99,4.0,6.8
國三N295K,23.468598,120.499369,CAL070,2026-02-24T16:10:00+08:00,嘉義市,東區,2026-02-24 16:27:26.159365,陰,7-10,-99,0.0,350.0,3.4,23.8,83,-99,-99,3.7,7.3
國三S290K,23.504106,120.490742,CAM900,2026-02-24T16:10:00+08:00,嘉義縣,竹崎鄉,2026-02-24 16:27:26.159369,陰,7-10,-99,0.0,360.0,5.0,24.0,83,-99,-99,5.3,8.3
國一S336K,22.894167,120.271178,CAV270,2026-02-24T16:10:00+08:00,高雄市,路竹區,2026-02-24 16:27:26.159373,陰,>30,-99,0.0,270.0,2.0,26.2,74,-99,-99,3.0,4.5
國一N315K,23.0835,120.251897,CAN150,2026-02-24T16:10:00+08:00,臺南市,新市區,2026-02-24 16:27:26.159377,多雲,11-15,-99,0.0,330.0,4.0,25.2,80,-99,-99,4.4,6.3
國三S378K,22.825958,120.415519,CAV280,2026-02-24T16:10:00+08:00,高雄市,田寮區,2026-02-24 16:27:26.159381,陰,7-10,-99,0.0,330.0,3.2,26.0,79,-99,-99,3.2,5.5
國三N303K,23.411969,120.452447,CAL080,2026-02-24T16:10:00+08:00,嘉義縣,中埔鄉,2026-02-24 16:27:26.159385,陰,7-10,-99,0.0,330.0,1.7,24.1,85,-99,-99,3.5,7.9
國三S311K,23.346388,120.438888,CAN060,2026-02-24T16:10:00+08:00,臺南市,白河區,2026-02-24 16:27:26.159389,陰,11-15,-99,0.0,350.0,4.0,24.6,74,-99,-99,5.2,7.7
國三S329K,23.212777,120.355833,CAN070,2026-02-24T16:10:00+08:00,臺南市,官田區,2026-02-24 16:27:26.159392,多雲,21-30,-99,0.0,290.0,5.9,24.7,83,-99,-99,6.5,9.3
國三N336K,23.154722,120.345,CAN080,2026-02-24T16:10:00+08:00,臺南市,官田區,2026-02-24 16:27:26.159396,多雲,-99,-99,0.0,300.0,5.2,25.3,84,-99,-99,5.0,7.4
國三S342K,23.106694,120.327528,CAN090,2026-02-24T16:10:00+08:00,臺南市,善化區,2026-02-24 16:27:26.159400,多雲有霾,7-10,-99,0.0,310.0,4.0,25.5,73,-99,-99,4.3,7.0
國三S366K,22.9077,120.3513,CAN100,2026-02-24T16:10:00+08:00,臺南市,關廟區,2026-02-24 16:27:26.159404,陰,16-20,-99,0.0,300.0,1.3,25.8,69,-99,-99,1.8,4.3
國三S385K,22.767777,120.444444,CAP060,2026-02-24T16:10:00+08:00,高雄市,大樹區,2026-02-24 16:27:26.159408,陰有霾,7-10,-99,0.0,280.0,1.5,26.7,71,-99,-99,2.7,5.2
國三S415K,22.568,120.528,CAQ020,2026-02-24T16:10:00+08:00,屏東縣,竹田鄉,2026-02-24 16:27:26.159412,陰,>30,-99,0.0,250.0,4.0,27.2,62,-99,-99,3.9,6.0
國三N425K,22.480277,120.531666,CAQ010,2026-02-24T16:10:00+08:00,屏東縣,南州鄉,2026-02-24 16:27:26.159416,陰,-99,-99,0.0,230.0,3.2,27.5,70,-99,-99,4.5,7.5
西濱S241K,23.623426,120.172646,CAJ040,2026-02-24T16:10:00+08:00,雲林縣,口湖鄉,2026-02-24 16:27:26.159419,陰,-99,-99,-99,-99,-99,-99,-99,-99,-99,-99,-99
西濱S267K,23.41613,120.162872,CAL100,2026-02-24T16:10:00+08:00,嘉義縣,東石鄉,2026-02-24 16:27:26.159423,陰,>30,-99,0.0,350.0,5.3,23.3,79,-99,-99,6.2,7.8
西濱S023K,25.11649,121.27551,CAC050,2026-02-24T16:10:00+08:00,桃園市,蘆竹區,2026-02-24 16:27:26.159427,陰,21-30,-99,-99,-99,-99,-99,-99,-99,-99,-99,-99
西濱S032K,25.091966,121.192505,CAC060,2026-02-24T16:10:00+08:00,桃園市,大園區,2026-02-24 16:27:26.159431,陰,-99,-99,-99,-99,-99,-99,-99,-99,-99,-99,-99
西濱N066K,24.8956,120.9649,CAD100,2026-02-24T16:10:00+08:00,新竹縣,新豐鄉,2026-02-24 16:27:26.159435,陰,7-10,-99,0.0,280.0,0.7,22.1,86,-99,-99,0.9,1.4
西濱S082K,24.751724,120.905028,CAD110,2026-02-24T16:10:00+08:00,新竹市,香山區,2026-02-24 16:27:26.159439,陰,16-20,-99,0.0,30.0,0.8,21.9,89,-99,-99,1.4,2.6
西濱N107K,24.5958,120.7394,CAE100,2026-02-24T16:10:00+08:00,苗栗縣,後龍鎮,2026-02-24 16:27:26.159443,陰,16-20,-99,0.0,160.0,0.6,21.2,89,-99,-99,1.2,2.1
西濱S129K,24.4472,120.6428,CAE110,2026-02-24T16:10:00+08:00,苗栗縣,苑裡鎮,2026-02-24 16:27:26.159446,陰,21-30,-99,0.0,40.0,2.4,22.0,79,-99,-99,3.8,5.0
西濱N151K,24.275964,120.547681,CAF100,2026-02-24T16:10:00+08:00,臺中市,清水區,2026-02-24 16:27:26.159450,陰,16-20,-99,0.0,30.0,1.4,21.8,83,-99,-99,2.5,4.5
西濱S173K,24.1081,120.434576,CAG070,2026-02-24T16:10:00+08:00,彰化縣,鹿港鎮,2026-02-24 16:27:26.159454,陰,16-20,-99,0.0,30.0,3.2,22.0,83,-99,-99,4.8,6.4
西濱S189K,23.987857,120.369607,CAG080,2026-02-24T16:10:00+08:00,彰化縣,芳苑鄉,2026-02-24 16:27:26.159458,陰,16-20,-99,0.0,20.0,4.5,21.5,85,-99,-99,5.3,7.5
西濱N210K,23.843536,120.293236,CAG090,2026-02-24T16:10:00+08:00,彰化縣,大城鄉,2026-02-24 16:27:26.159462,陰,21-30,-99,0.0,30.0,4.5,21.6,86,-99,-99,7.0,8.9
西濱N222K,23.737734,120.256132,CAJ030,2026-02-24T16:10:00+08:00,雲林縣,麥寮鄉,2026-02-24 16:27:26.159467,陰,16-20,-99,0.0,10.0,5.1,21.7,84,-99,-99,6.3,8.4
西濱S257K,23.502278,120.171861,CAL090,2026-02-24T16:10:00+08:00,嘉義縣,東石鄉,2026-02-24 16:27:26.159471,陰,11-15,-99,0.0,10.0,2.5,23.6,79,-99,-99,3.2,6.4
西濱S280K,23.3052,120.14891,CAN110,2026-02-24T16:10:00+08:00,臺南市,北門區,2026-02-24 16:27:26.159475,陰,16-20,-99,0.0,350.0,5.8,23.1,81,-99,-99,6.2,8.1
西濱N304K,23.103439,120.086694,CAN120,2026-02-24T16:10:00+08:00,臺南市,七股區,2026-02-24 16:27:26.159479,陰,>30,-99,0.0,10.0,5.7,23.4,83,-99,-99,6.2,7.3
基隆,25.133314,121.740475,466940,2026-02-24T16:10:00+08:00,基隆市,仁愛區,2026-02-24 16:27:26.226193,陰有靄,7-10,0.7,0.0,40.0,1.6,20.9,86,1010.4,1,2.7,4.1
淡水,25.164889,121.448906,466900,2026-02-24T16:10:00+08:00,新北市,淡水區,2026-02-24 16:27:26.226207,陰有雨,7-10,0.3,-990.0,300.0,0.5,20.8,92,1011.8,1,0.8,1.8
新北,24.959207,121.525196,466881,2026-02-24T16:10:00+08:00,新北市,新店區,2026-02-24 16:27:26.226212,陰,21-30,0.4,-990.0,270.0,1.3,24.0,68,1010.8,0,1.9,3.4
陽明山,25.162078,121.544547,466930,2026-02-24T16:10:00+08:00,臺北市,北投區,2026-02-24 16:27:26.226216,陰,-99,0.4,0.0,0.0,0.0,18.4,92,945.3,1,1.7,2.8
鞍部,25.182586,121.529731,466910,2026-02-24T16:10:00+08:00,臺北市,北投區,2026-02-24 16:27:26.226220,陰有雨,16-20,0.3,-990.0,190.0,0.6,16.9,96,-99,1,2.2,2.9
新竹,24.828575,121.01445,467571,2026-02-24T16:10:00+08:00,新竹縣,竹北市,2026-02-24 16:27:26.226224,陰,>30,0.8,-990.0,0.0,0.2,23.2,73,1010.4,0,1.6,2.2
臺中,24.145736,120.684075,467490,2026-02-24T16:10:00+08:00,臺中市,北區,2026-02-24 16:27:26.226228,陰,16-20,1.9,-990.0,350.0,1.4,23.2,72,1003.8,0,2.4,5.3
梧棲,24.256003,120.523381,C0FA30,2026-02-24T16:10:00+08:00,臺中市,梧棲區,2026-02-24 16:27:26.226232,陰,-99,-99,0.0,360.0,1.8,21.6,89,-99,-99,4.0,6.4
澎湖,23.565503,119.563094,467350,2026-02-24T16:10:00+08:00,澎湖縣,馬公市,2026-02-24 16:27:26.226235,陰,21-30,2.5,0.0,20.0,2.6,22.9,82,1012.2,1,3.1,5.4
日月潭,23.881325,120.90805,467650,2026-02-24T16:10:00+08:00,南投縣,魚池鄉,2026-02-24 16:27:26.226239,陰有靄,7-10,3.3,0.0,270.0,0.8,19.5,83,-99,1,1.6,3.3
阿里山,23.508208,120.813242,467530,2026-02-24T16:10:00+08:00,嘉義縣,阿里山鄉,2026-02-24 16:27:26.226243,多雲,>30,2.6,0.0,320.0,0.7,11.4,89,-99,2,1.5,3.9
玉山,23.48718,120.95943,467550,2026-02-24T16:10:00+08:00,南投縣,信義鄉,2026-02-24 16:27:26.226247,多雲,-99,1.8,0.0,210.0,1.3,6.5,61,-99,2,3.5,10.4
嘉義,23.495925,120.432906,467480,2026-02-24T16:10:00+08:00,嘉義市,西區,2026-02-24 16:27:26.226251,陰,16-20,2.0,0.0,350.0,3.1,24.0,78,1010.0,1,-99,-99
臺南,22.99328,120.20492,467410,2026-02-24T16:10:00+08:00,臺南市,中西區,2026-02-24 16:27:26.226255,陰,11-15,1.7,0.0,330.0,3.3,25.8,68,1010.1,1,3.2,5.5
高雄,22.730432,120.312516,467441,2026-02-24T16:10:00+08:00,高雄市,楠梓區,2026-02-24 16:27:26.226258,陰,>30,2.3,0.0,290.0,2.3,26.6,71,1011.3,2,3.3,5.5
恆春,22.003897,120.746339,467590,2026-02-24T16:10:00+08:00,屏東縣,恆春鎮,2026-02-24 16:27:26.226262,晴,>30,2.7,-990.0,100.0,3.4,27.0,67,1009.5,3,4.1,9.1
宜蘭,24.763975,121.756528,467080,2026-02-24T16:10:00+08:00,宜蘭縣,宜蘭市,2026-02-24 16:27:26.226266,陰,>30,2.7,0.0,50.0,3.2,24.4,76,1012.8,1,3.9,6.2
花蓮,23.975128,121.613275,466990,2026-02-24T16:10:00+08:00,花蓮縣,花蓮市,2026-02-24 16:27:26.226271,陰,21-30,4.7,0.0,170.0,3.8,25.1,77,1010.8,2,4.9,6.9
成功,23.097486,121.373428,467610,2026-02-24T16:10:00+08:00,臺東縣,成功鎮,2026-02-24 16:27:26.226275,多雲,21-30,2.3,1.0,140.0,1.7,25.5,73,1008.2,2,2.0,3.8
臺東,22.752211,121.154586,467660,2026-02-24T16:10:00+08:00,臺東縣,臺東市,2026-02-24 16:27:26.226279,晴,>30,3.3,1.5,160.0,1.3,26.0,72,1011.5,3,1.6,3.1
大武,22.35572,120.90374,467540,2026-02-24T16:10:00+08:00,臺東縣,大武鄉,2026-02-24 16:27:26.226282,晴,-99,4.2,0.0,110.0,1.1,26.0,74,1011.7,3,1.7,2.8
蘭嶼,22.0369,121.55843,467620,2026-02-24T16:10:00+08:00,臺東縣,蘭嶼鄉,2026-02-24 16:27:26.226286,晴,>30,3.9,-990.0,160.0,1.2,24.4,79,976.3,2,4.4,7.0
彭佳嶼,25.627975,122.079744,466950,2026-02-24T16:10:00+08:00,基隆市,中正區,2026-02-24 16:27:26.226290,陰有靄,7-10,0.2,-990.0,310.0,3.7,19.3,94,1002.3,1,3.9,5.0
東吉島,23.25727,119.66762,467300,2026-02-24T16:10:00+08:00,澎湖縣,望安鄉,2026-02-24 16:27:26.226294,陰,21-30,2.9,0.0,30.0,5.3,23.1,82,1008.3,2,5.7,7.0
南沙島,10.370203,114.364286,469020,2026-02-24T16:10:00+08:00,高雄市,旗津區,2026-02-24 16:27:26.226298,-99,-99,-99,-99,-99,-99,-99,-99,-99,-99,-99,-99
東沙島,20.700856,116.73,468100,2026-02-24T16:10:00+08:00,高雄市,旗津區,2026-02-24 16:27:26.226302,-99,-99,-99,-99,-99,-99,-99,-99,-99,-99,-99,-99
永康,23.038386,120.2367,467420,2026-02-24T16:10:00+08:00,臺南市,永康區,2026-02-24 16:27:26.226306,多雲,-99,2.3,0.0,320.0,3.5,26.1,66,1011.6,1,3.6,6.4
金門(東),24.448431,118.451786,C2W030,2026-02-24T16:10:00+08:00,金門縣,金湖鎮,2026-02-24 16:27:26.226309,陰,-99,-99,17.0,130.0,1.3,16.1,97,-99,-99,1.8,3.4
臺北,25.037658,121.514853,466920,2026-02-24T16:10:00+08:00,臺北市,中正區,2026-02-24 16:27:26.226313,陰,>30,0.2,-990.0,310.0,0.5,24.9,63,1010.2,0,2.9,4.6
彰師大,24.081389,120.556667,A0G720,2026-02-24T16:10:00+08:00,彰化縣,彰化市,2026-02-24 16:27:26.226317,陰,-99,-99,0.0,320.0,1.3,22.6,82,-99,-99,2.5,5.9
合歡山,24.143186,121.284231,A0Z080,2026-02-24T16:10:00+08:00,花蓮縣,秀林鄉,2026-02-24 16:27:26.226321,陰,-99,-99,0.0,90.0,5.4,5.0,81,-99,-99,6.3,12.9
吉貝,23.740011,119.604189,A0W080,2026-02-24T16:10:00+08:00,澎湖縣,白沙鄉,2026-02-24 16:27:26.226325,陰,-99,-99,-99,-99,-99,-99,-99,-99,-99,-99,-99
金門,24.407306,118.289281,467110,2026-02-24T16:10:00+08:00,金門縣,金城鎮,2026-02-24 16:27:26.226329,陰有靄,1.2,0.0,12.0,140.0,1.6,16.8,98,1010.8,1,1.3,2.3
馬祖,26.169467,119.923158,467990,2026-02-24T16:10:00+08:00,連江縣,南竿鄉,2026-02-24 16:27:26.226332,陰有靄,3-6,0.1,1.5,190.0,1.8,15.7,98,1003.5,1,2.6,3.7
麥寮,23.798783,120.217717,A0K420,2026-02-24T16:10:00+08:00,雲林縣,麥寮鄉,2026-02-24 16:27:26.226336,陰,-99,-99,0.0,20.0,4.8,22.1,84,-99,-99,6.0,9.5
新屋,25.006725,121.047492,467050,2026-02-24T16:10:00+08:00,桃園市,新屋區,2026-02-24 16:27:26.226340,陰有靄,7-10,0.1,-990.0,300.0,1.8,21.5,89,1011.6,0,1.5,2.5
古坑(花卉中心),23.63353,120.55239,A2K570,2026-02-24T16:10:00+08:00,雲林縣,古坑鄉,2026-02-24 16:27:26.226344,陰,-99,-99,0.0,10.0,2.9,23.8,73,-99,-99,4.0,6.0
大安森林,25.02955,121.53628,CAAH60,2026-02-24T16:10:00+08:00,臺北市,大安區,2026-02-24 16:27:26.226348,陰,-99,-99,0.0,0.0,0.0,23.8,66,-99,-99,0.3,1.8
消防署訓練中心,23.82137,120.72293,CAHA00,2026-02-24T16:10:00+08:00,南投縣,竹山鎮,2026-02-24 16:27:26.226352,陰,-99,-99,0.0,330.0,1.3,23.2,74,-99,-99,2.4,5.7
田中,23.873803,120.581286,467270,2026-02-24T16:10:00+08:00,彰化縣,田中鎮,2026-02-24 16:27:26.226356,陰,>30,1.2,-990.0,350.0,2.6,23.4,72,1008.4,1,3.9,6.5
拉拉山,24.699317,121.427133,CAC040,2026-02-24T16:10:00+08:00,桃園市,復興區,2026-02-24 16:27:26.226359,陰,-99,-99,0.0,320.0,0.4,13.3,92,-99,-99,1.1,2.2
東引,26.358836,120.483631,CAW010,2026-02-24T16:10:00+08:00,連江縣,東引鄉,2026-02-24 16:27:26.226363,陰有靄,7-10,-99,1.0,190.0,1.0,14.7,94,-99,-99,1.7,2.7
高雄燈塔,22.614594,120.26468,CAP070,2026-02-24T16:10:00+08:00,高雄市,旗津區,2026-02-24 16:27:26.226367,陰,-99,-99,0.0,180.0,1.2,26.6,75,-99,-99,1.2,2.7
武陵,24.352825,121.308286,A0F010,2026-02-24T16:10:00+08:00,臺中市,和平區,2026-02-24 16:27:26.226371,陰,-99,-99,0.0,210.0,1.3,16.0,67,-99,-99,2.7,6.9
後龍,24.648563,120.831834,467280,2026-02-24T16:10:00+08:00,苗栗縣,造橋鄉,2026-02-24 16:27:26.226374,陰,11-15,0.3,-990.0,110.0,0.4,21.4,91,1009.7,0,1.7,2.7
古坑,23.633639,120.551889,467290,2026-02-24T16:10:00+08:00,雲林縣,古坑鄉,2026-02-24 16:27:26.226378,陰,-99,1.3,0.0,10.0,3.1,23.8,72,1002.8,1,4.6,6.8
中央大學,24.967652,121.185165,C2C410,2026-02-24T16:10:00+08:00,桃園市,中壢區,2026-02-24 16:27:26.226382,陰,-99,-99,0.0,350.0,0.4,22.8,75,-99,-99,1.0,1.7
文化大學,25.13605,121.53987,A0A460,2026-02-24T16:10:00+08:00,臺北市,士林區,2026-02-24 16:27:26.226386,陰,-99,-99,0.0,220.0,1.1,20.4,76,-99,-99,1.3,2.4
臺灣大學,25.014278,121.539416,A0A010,2026-02-24T16:10:00+08:00,臺北市,大安區,2026-02-24 16:27:26.226390,陰,-99,-99,0.0,60.0,0.4,24.3,63,-99,-99,-99,-99
班鳩分場,22.829528,121.077694,72S200,2026-02-24T16:10:00+08:00,臺東縣,卑南鄉,2026-02-24 16:27:26.226394,多雲,-99,-99,0.5,100.0,2.9,23.9,73,-99,-99,3.8,6.9
賓朗果園,22.813889,121.071278,72S590,2026-02-24T16:10:00+08:00,臺東縣,卑南鄉,2026-02-24 16:27:26.226398,多雲,-99,-99,0.0,20.0,0.5,23.6,-99,-99,-99,1.0,2.7
臺東茶改,22.907694,121.130139,82S580,2026-02-24T16:10:00+08:00,臺東縣,鹿野鄉,2026-02-24 16:27:26.226402,多雲,-99,-99,0.0,-99,-99,24.9,71,-99,-99,-99,-99
臺大溪頭,23.670306,120.798194,U2H480,2026-02-24T16:10:00+08:00,南投縣,鹿谷鄉,2026-02-24 16:27:26.226406,陰,-99,-99,0.0,350.0,0.4,15.9,97,-99,-99,1.5,3.2
臺中農改,24.003028,120.534389,72G600,2026-02-24T16:10:00+08:00,彰化縣,大村鄉,2026-02-24 16:27:26.226410,陰,-99,-99,0.0,360.0,3.2,23.0,75,-99,-99,4.2,6.1
雲林分場,23.634556,120.477333,72K220,2026-02-24T16:10:00+08:00,雲林縣,斗南鎮,2026-02-24 16:27:26.226414,陰,-99,-99,0.0,350.0,2.5,24.6,73,-99,-99,3.0,5.9
臺南農改,23.0605,120.342194,72N100,2026-02-24T16:10:00+08:00,臺南市,新化區,2026-02-24 16:27:26.226418,多雲,-99,-99,0.0,-99,-99,26.4,67,-99,-99,-99,-99
旗南農改,22.857861,120.516667,72V140,2026-02-24T16:10:00+08:00,高雄市,旗山區,2026-02-24 16:27:26.226422,陰,-99,-99,0.0,290.0,4.0,26.1,63,-99,-99,4.8,6.7
高雄農改,22.709333,120.525889,72Q010,2026-02-24T16:10:00+08:00,屏東縣,長治鄉,2026-02-24 16:27:26.226426,陰,-99,-99,0.0,290.0,1.9,28.0,61,-99,-99,2.0,4.6
新竹畜試,24.527806,120.770972,B2E890,2026-02-24T16:10:00+08:00,苗栗縣,西湖鄉,2026-02-24 16:27:26.226430,陰,-99,-99,0.0,160.0,0.3,20.9,85,-99,-99,1.1,1.9
桃園農改,24.950944,121.030583,72C440,2026-02-24T16:10:00+08:00,桃園市,新屋區,2026-02-24 16:27:26.226433,陰,-99,-99,0.0,280.0,0.5,22.1,82,-99,-99,0.4,1.3
五峰站,24.612194,121.157167,72D080,2026-02-24T16:10:00+08:00,新竹縣,五峰鄉,2026-02-24 16:27:26.226437,陰,-99,-99,0.0,0.0,0.0,15.8,99,-99,-99,0.3,1.6
茶改場,24.908472,121.185333,82C160,2026-02-24T16:10:00+08:00,桃園市,楊梅區,2026-02-24 16:27:26.226441,陰,-99,-99,0.0,0.0,0.0,21.9,74,-99,-99,1.1,2.2
農工中心,24.985917,121.239833,A2C560,2026-02-24T16:10:00+08:00,桃園市,中壢區,2026-02-24 16:27:26.226445,陰,-99,-99,0.0,0.0,0.0,22.7,73,-99,-99,1.3,2.7
文山茶改,24.955778,121.631222,82A750,2026-02-24T16:10:00+08:00,新北市,石碇區,2026-02-24 16:27:26.226449,陰,-99,-99,0.0,0.0,0.0,21.2,80,-99,-99,1.0,1.9
蘭陽分場,24.686306,121.716583,72U480,2026-02-24T16:10:00+08:00,宜蘭縣,三星鄉,2026-02-24 16:27:26.226452,陰,-99,-99,0.0,350.0,1.3,24.6,71,-99,-99,2.6,3.7
苗栗農改,24.495722,120.829111,K2E360,2026-02-24T16:10:00+08:00,苗栗縣,公館鄉,2026-02-24 16:27:26.226456,陰,-99,-99,0.0,20.0,1.8,21.6,78,-99,-99,2.5,4.1
大湖分場,24.422861,120.871833,K2E710,2026-02-24T16:10:00+08:00,苗栗縣,大湖鄉,2026-02-24 16:27:26.226460,陰,-99,-99,0.0,330.0,1.5,21.2,77,-99,-99,2.2,3.9
種苗繁殖,24.225972,120.800917,K2F750,2026-02-24T16:10:00+08:00,臺中市,新社區,2026-02-24 16:27:26.226464,陰,-99,-99,0.0,20.0,1.3,20.4,81,-99,-99,2.3,3.6
凍頂茶改,23.762528,120.7405,82H840,2026-02-24T16:10:00+08:00,南投縣,鹿谷鄉,2026-02-24 16:27:26.226468,陰,-99,-99,0.0,360.0,1.7,21.2,75,-99,-99,2.8,4.3
魚池茶改,23.875611,120.913583,82H320,2026-02-24T16:10:00+08:00,南投縣,魚池鄉,2026-02-24 16:27:26.226472,陰,-99,-99,0.0,220.0,1.1,19.5,80,-99,-99,1.6,4.3
臺大竹山,23.756972,120.681556,U2HA50,2026-02-24T16:10:00+08:00,南投縣,竹山鎮,2026-02-24 16:27:26.226475,陰,-99,-99,-99,-99,-99,-99,-99,-99,-99,-99,-99
嘉義農試,23.485028,120.473806,G2L020,2026-02-24T16:10:00+08:00,嘉義市,東區,2026-02-24 16:27:26.226479,陰,-99,-99,0.0,330.0,3.2,24.1,73,-99,-99,3.6,7.0
義竹分場,23.360694,120.279361,72M360,2026-02-24T16:10:00+08:00,嘉義縣,義竹鄉,2026-02-24 16:27:26.226483,陰,-99,-99,0.0,330.0,3.7,25.3,66,-99,-99,4.9,6.9
畜試所,23.058972,120.336406,B2N890,2026-02-24T16:10:00+08:00,臺南市,新化區,2026-02-24 16:27:26.226487,多雲,-99,-99,0.0,320.0,2.1,26.0,69,-99,-99,2.7,5.0
鳳山農試,22.646611,120.356083,G2P820,2026-02-24T16:10:00+08:00,高雄市,鳳山區,2026-02-24 16:27:26.226491,陰,-99,-99,0.0,330.0,2.5,26.3,69,-99,-99,2.3,5.3
恆春畜試,21.945583,120.802167,B2Q810,2026-02-24T16:10:00+08:00,屏東縣,恆春鎮,2026-02-24 16:27:26.226494,晴,-99,-99,4.5,70.0,2.7,26.7,66,-99,-99,3.8,8.1
花蓮農改,23.975222,121.563889,72T250,2026-02-24T16:10:00+08:00,花蓮縣,吉安鄉,2026-02-24 16:27:26.226498,陰,-99,-99,0.0,330.0,1.3,24.8,80,-99,-99,1.9,3.2
蓮華池,23.918333,120.885278,E2H360,2026-02-24T16:10:00+08:00,南投縣,魚池鄉,2026-02-24 16:27:26.226502,陰,-99,-99,0.0,10.0,0.8,21.3,75,-99,-99,1.4,4.0
埔里分場,23.903208,120.963364,72HA00,2026-02-24T16:10:00+08:00,南投縣,魚池鄉,2026-02-24 16:27:26.226506,陰,-99,-99,0.0,-99,-99,21.8,74,-99,-99,-99,-99
臺大和社,23.590856,120.888864,U2HA30,2026-02-24T16:10:00+08:00,南投縣,信義鄉,2026-02-24 16:27:26.226510,多雲,-99,-99,0.0,60.0,0.9,22.6,80,-99,-99,0.8,4.7
臺大內茅埔,23.689722,120.851117,U2HA40,2026-02-24T16:10:00+08:00,南投縣,信義鄉,2026-02-24 16:27:26.226514,陰,-99,-99,0.0,300.0,1.0,22.4,73,-99,-99,1.6,5.6
溪口農場,23.58565,120.408111,G2M350,2026-02-24T16:10:00+08:00,嘉義縣,溪口鄉,2026-02-24 16:27:26.226517,陰,-99,-99,0.0,360.0,3.3,24.0,76,-99,-99,4.6,7.2
四湖植物園,23.676986,120.163433,E2K600,2026-02-24T16:10:00+08:00,雲林縣,四湖鄉,2026-02-24 16:27:26.226521,陰,-99,-99,0.0,10.0,0.6,23.0,97,-99,-99,1.5,5.3
農業試驗所,24.031261,120.688133,G2F820,2026-02-24T16:10:00+08:00,臺中市,霧峰區,2026-02-24 16:27:26.226525,陰,-99,-99,0.0,320.0,3.1,23.6,73,-99,-99,-99,-99
嘉義分場,23.416869,120.283061,72M700,2026-02-24T16:10:00+08:00,嘉義縣,鹿草鄉,2026-02-24 16:27:26.226529,陰,-99,-99,0.0,-99,-99,24.6,72,-99,-99,-99,-99
七股研究中心,23.081672,120.062894,72N240,2026-02-24T16:10:00+08:00,臺南市,七股區,2026-02-24 16:27:26.226533,陰,-99,-99,0.0,360.0,4.5,24.2,79,-99,-99,4.9,7.1
萬大發電廠,23.978875,121.139639,42HA10,2026-02-24T16:10:00+08:00,南投縣,仁愛鄉,2026-02-24 16:27:26.226537,陰,-99,-99,0.0,10.0,0.9,20.1,69,-99,-99,1.6,3.6
東港工作站,22.479997,120.466058,12Q970,2026-02-24T16:10:00+08:00,屏東縣,東港鎮,2026-02-24 16:27:26.226541,陰,-99,-99,0.0,210.0,3.3,26.9,67,-99,-99,3.6,6.6
口湖工作站,23.589978,120.180394,12J990,2026-02-24T16:10:00+08:00,雲林縣,口湖鄉,2026-02-24 16:27:26.226544,陰,-99,-99,0.0,20.0,3.2,23.0,80,-99,-99,2.8,6.1
恆春工作站,22.079678,120.714425,12Q980,2026-02-24T16:10:00+08:00,屏東縣,車城鄉,2026-02-24 16:27:26.226548,晴,-99,-99,0.0,80.0,3.9,27.2,62,-99,-99,5.3,9.5
大庄合作社,23.8068,120.367939,V2K610,2026-02-24T16:10:00+08:00,雲林縣,二崙鄉,2026-02-24 16:27:26.226552,陰,-99,-99,0.0,10.0,3.0,22.7,79,-99,-99,3.8,6.3
麥寮合作社,23.753836,120.294783,V2K620,2026-02-24T16:10:00+08:00,雲林縣,麥寮鄉,2026-02-24 16:27:26.226556,陰,-99,-99,-99,-99,-99,-99,-99,-99,-99,-99,-99
太麻里(1),22.598922,120.980044,E2S980,2026-02-24T16:10:00+08:00,臺東縣,太麻里鄉,2026-02-24 16:27:26.226560,多雲,-99,-99,1.0,0.0,0.0,24.8,75,-99,-99,1.4,3.2
太麻里(2),22.598,120.99775,E2S960,2026-02-24T16:10:00+08:00,臺東縣,太麻里鄉,2026-02-24 16:27:26.226564,多雲,-99,-99,0.5,140.0,1.2,26.0,68,-99,-99,1.6,3.0
桃改臺北,24.944503,121.386972,72AI40,2026-02-24T16:10:00+08:00,新北市,樹林區,2026-02-24 16:27:26.226567,陰,-99,-99,0.0,0.0,0.0,23.9,63,-99,-99,0.9,2.1
畢祿溪站,24.226944,121.308522,E2HA20,2026-02-24T16:10:00+08:00,南投縣,仁愛鄉,2026-02-24 16:27:26.226571,陰,-99,-99,0.0,0.0,0.0,13.2,66,-99,-99,0.4,1.7
蘭花園區,23.340258,120.379661,A2N290,2026-02-24T16:10:00+08:00,臺南市,後壁區,2026-02-24 16:27:26.226575,陰,-99,-99,0.0,350.0,3.5,25.9,71,-99,-99,4.7,8.2
宜蘭畜試,24.669039,121.832561,B2U990,2026-02-24T16:10:00+08:00,宜蘭縣,五結鄉,2026-02-24 16:27:26.226579,陰,-99,-99,0.0,340.0,2.1,25.1,79,-99,-99,1.6,2.6
雲林臺大,23.730628,120.423903,A2K630,2026-02-24T16:10:00+08:00,雲林縣,虎尾鎮,2026-02-24 16:27:26.226583,陰,-99,-99,0.0,360.0,2.8,22.9,76,-99,-99,3.4,7.4
六龜林試,22.991703,120.645722,E2P980,2026-02-24T16:10:00+08:00,高雄市,六龜區,2026-02-24 16:27:26.226586,多雲,-99,-99,0.0,270.0,1.8,26.1,65,-99,-99,2.0,3.8
扇平林試,22.9677,120.685703,E2P990,2026-02-24T16:10:00+08:00,高雄市,茂林區,2026-02-24 16:27:26.226590,多雲,-99,-99,-99,-99,-99,-99,-99,-99,-99,-99,-99
臺西水試,23.717231,120.190522,A2K360,2026-02-24T16:10:00+08:00,雲林縣,臺西鄉,2026-02-24 16:27:26.226594,陰,-99,-99,0.0,30.0,2.6,-99,-99,-99,-99,3.6,6.6
八德合作社,24.93775,121.266389,V2C250,2026-02-24T16:10:00+08:00,桃園市,八德區,2026-02-24 16:27:26.226598,陰,-99,-99,-99,-99,-99,-99,-99,-99,-99,-99,-99
八德蔬果,24.978508,121.281819,V2C260,2026-02-24T16:10:00+08:00,桃園市,八德區,2026-02-24 16:27:26.226602,陰,-99,-99,-99,330.0,0.5,23.1,68,-99,-99,1.1,2.3
新埔工作站,24.834444,121.066111,72D680,2026-02-24T16:10:00+08:00,新竹縣,新埔鎮,2026-02-24 16:27:26.226605,陰,-99,-99,0.0,340.0,0.3,22.7,74,-99,-99,1.7,2.3
台農院關渡站,25.11575,121.492,G2AI50,2026-02-24T16:10:00+08:00,臺北市,北投區,2026-02-24 16:27:26.226609,陰,-99,-99,0.0,300.0,1.4,23.5,67,-99,-99,2.2,2.8
茶改場竹圍站,23.86008,120.6375,CAH030,2026-02-24T16:10:00+08:00,南投縣,名間鄉,2026-02-24 16:27:26.226613,陰,-99,-99,0.0,340.0,0.9,21.4,79,-99,-99,1.6,3.6
水試所海水繁養殖中心,23.120802,120.079676,CAN130,2026-02-24T16:10:00+08:00,臺南市,七股區,2026-02-24 16:27:26.226617,陰,-99,-99,0.0,360.0,4.9,23.4,83,-99,-99,5.3,7.6
布袋國中,23.35893,120.18026,CAL110,2026-02-24T16:10:00+08:00,嘉義縣,布袋鎮,2026-02-24 16:27:26.226621,陰,-99,-99,0.0,350.0,5.0,23.3,79,-99,-99,5.7,8.1
王功漁港,23.96824,120.32586,CAG100,2026-02-24T16:10:00+08:00,彰化縣,芳苑鄉,2026-02-24 16:27:26.226625,陰,-99,-99,0.0,20.0,4.2,22.0,81,-99,-99,4.6,6.3
海口故事園區,23.57543,120.14121,CAJ050,2026-02-24T16:10:00+08:00,雲林縣,口湖鄉,2026-02-24 16:27:26.226628,陰,-99,-99,-99,-99,-99,-99,-99,-99,-99,-99,-99
六官養殖協會,23.22881,120.29962,CAN140,2026-02-24T16:10:00+08:00,臺南市,六甲區,2026-02-24 16:27:26.226632,多雲,-99,-99,0.0,290.0,4.0,25.1,66,-99,-99,4.7,7.1
崎峰國小,22.42565,120.49521,CAQ030,2026-02-24T16:10:00+08:00,屏東縣,林邊鄉,2026-02-24 16:27:26.226636,陰,-99,-99,0.0,190.0,4.7,-99,-99,-99,-99,5.0,7.2
外寮,23.562643,120.665688,C2M960,2026-02-24T16:10:00+08:00,嘉義縣,梅山鄉,2026-02-24 16:27:26.226640,陰,-99,-99,0.0,270.0,0.4,17.7,92,-99,-99,2.4,4.0
碧湖,23.568632,120.624165,C2M970,2026-02-24T16:10:00+08:00,嘉義縣,梅山鄉,2026-02-24 16:27:26.226644,陰,-99,-99,0.0,340.0,1.3,17.2,95,-99,-99,2.1,4.3
屏東,22.660269,120.494027,C2R170,2026-02-24T16:10:00+08:00,屏東縣,屏東市,2026-02-24 16:27:26.226647,陰,-99,-99,0.0,330.0,0.6,27.6,64,-99,-99,1.0,3.4
美濃,22.898792,120.51907,C2V310,2026-02-24T16:10:00+08:00,高雄市,美濃區,2026-02-24 16:27:26.226651,多雲,-99,-99,0.0,300.0,3.7,26.3,67,-99,-99,3.9,6.9
安和,23.51377,120.31593,C2M980,2026-02-24T16:10:00+08:00,嘉義縣,新港鄉,2026-02-24 16:27:26.226655,陰,-99,-99,0.0,360.0,4.8,23.9,75,-99,-99,4.9,7.5
大巃頂,23.5547,120.61439,C2M990,2026-02-24T16:10:00+08:00,嘉義縣,梅山鄉,2026-02-24 16:27:26.226659,陰,-99,-99,0.0,310.0,1.1,17.6,94,-99,-99,1.7,3.5
茅港尾,23.2061,120.2624,C2N170,2026-02-24T16:10:00+08:00,臺南市,下營區,2026-02-24 16:27:26.226663,多雲,-99,-99,0.0,310.0,2.8,24.4,75,-99,-99,3.3,5.5
竹田國中,22.61532,120.52412,C2R980,2026-02-24T16:10:00+08:00,屏東縣,竹田鄉,2026-02-24 16:27:26.226667,陰,-99,-99,0.0,260.0,3.0,29.2,54,-99,-99,3.1,5.3
泰武,22.60686,120.69765,C2R990,2026-02-24T16:10:00+08:00,屏東縣,泰武鄉,2026-02-24 16:27:26.226671,陰,-99,-99,0.0,240.0,1.0,21.3,77,-99,-99,1.3,5.3
六十石,23.22477,121.31861,C2TA60,2026-02-24T16:10:00+08:00,花蓮縣,富里鄉,2026-02-24 16:27:26.226675,多雲,-99,-99,0.0,180.0,1.1,19.9,83,-99,-99,3.4,6.1
赤科坪,23.39885,121.39168,C2TA70,2026-02-24T16:10:00+08:00,花蓮縣,玉里鎮,2026-02-24 16:27:26.226679,陰,-99,-99,0.0,240.0,1.4,19.8,86,-99,-99,1.9,3.4
出水溪,24.615822,121.652253,C2UC10,2026-02-24T16:10:00+08:00,宜蘭縣,大同鄉,2026-02-24 16:27:26.226683,陰,-99,-99,0.0,50.0,1.1,20.5,82,-99,-99,1.5,2.6
長嶺,24.70894,121.61162,C2UC20,2026-02-24T16:10:00+08:00,宜蘭縣,員山鄉,2026-02-24 16:27:26.226686,陰,-99,-99,0.0,350.0,0.2,21.1,83,-99,-99,0.5,1.0
和興,24.505319,120.923016,C2E980,2026-02-24T16:10:00+08:00,苗栗縣,獅潭鄉,2026-02-24 16:27:26.226690,陰,-99,-99,0.0,10.0,1.0,18.0,94,-99,-99,3.4,5.8
新坪頂,24.30201,120.8574,C2E990,2026-02-24T16:10:00+08:00,苗栗縣,卓蘭鎮,2026-02-24 16:27:26.226694,陰,-99,-99,0.0,50.0,2.2,19.6,85,-99,-99,2.7,5.9
松茗,23.8167,120.650765,C2H9Y0,2026-02-24T16:10:00+08:00,南投縣,名間鄉,2026-02-24 16:27:26.226698,陰,-99,-99,0.0,30.0,1.9,20.9,80,-99,-99,2.1,4.6
大新,22.67558,120.57788,C2RA10,2026-02-24T16:10:00+08:00,屏東縣,內埔鄉,2026-02-24 16:27:26.226702,陰,-99,-99,0.0,310.0,3.5,27.9,57,-99,-99,3.9,6.2
加納納,23.466421,121.359867,C2TA90,2026-02-24T16:10:00+08:00,花蓮縣,瑞穗鄉,2026-02-24 16:27:26.226705,陰,-99,-99,0.0,70.0,1.3,24.9,70,-99,-99,1.9,3.4
吉安,23.94538,121.54803,C2TB30,2026-02-24T16:10:00+08:00,花蓮縣,吉安鄉,2026-02-24 16:27:26.226709,陰,-99,-99,0.0,60.0,0.4,24.8,75,-99,-99,0.7,2.0
崙內,23.69525,120.35601,C2K290,2026-02-24T16:10:00+08:00,雲林縣,土庫鎮,2026-02-24 16:27:26.226713,陰,-99,-99,0.0,20.0,2.7,23.3,77,-99,-99,5.0,7.5
鹿南,23.63855,120.3636,C2K300,2026-02-24T16:10:00+08:00,雲林縣,元長鄉,2026-02-24 16:27:26.226717,陰,-99,-99,0.0,10.0,4.1,23.9,77,-99,-99,4.8,7.1
崙背,23.75553,120.31893,C2K250,2026-02-24T16:10:00+08:00,雲林縣,崙背鄉,2026-02-24 16:27:26.226721,陰,-99,-99,0.0,30.0,3.2,22.9,79,-99,-99,3.5,6.6
四湖,23.6304,120.22717,C2K280,2026-02-24T16:10:00+08:00,雲林縣,四湖鄉,2026-02-24 16:27:26.226725,陰,-99,-99,0.0,20.0,3.3,23.9,75,-99,-99,3.6,7.0
下營,23.226806,120.256291,C2X060,2026-02-24T16:10:00+08:00,臺南市,下營區,2026-02-24 16:27:26.226729,多雲,-99,-99,0.0,320.0,3.0,25.2,69,-99,-99,3.9,6.3
利吉,22.86246,121.15486,C2S9B0,2026-02-24T16:10:00+08:00,臺東縣,卑南鄉,2026-02-24 16:27:26.226733,多雲,-99,-99,1.0,110.0,2.2,24.2,77,-99,-99,3.3,6.3
北份子寮,22.78561,121.07813,C2S9A0,2026-02-24T16:10:00+08:00,臺東縣,卑南鄉,2026-02-24 16:27:26.226736,多雲,-99,-99,0.5,160.0,2.1,25.4,69,-99,-99,3.0,4.6
順那,23.04166,121.29332,C2SD50,2026-02-24T16:10:00+08:00,臺東縣,東河鄉,2026-02-24 16:27:26.226741,多雲,-99,-99,0.5,100.0,2.6,25.2,68,-99,-99,2.6,6.5
二層坪,22.94105,121.16838,C2SD70,2026-02-24T16:10:00+08:00,臺東縣,鹿野鄉,2026-02-24 16:27:26.226744,多雲,-99,-99,0.5,240.0,2.8,25.3,66,-99,-99,3.9,6.6
明峰,22.8671,121.11825,C2SD60,2026-02-24T16:10:00+08:00,臺東縣,卑南鄉,2026-02-24 16:27:26.226748,多雲,-99,-99,0.0,170.0,2.7,23.5,76,-99,-99,3.5,6.0
再來山,23.34371,121.44122,C2SD80,2026-02-24T16:10:00+08:00,臺東縣,長濱鄉,2026-02-24 16:27:26.226752,陰,-99,-99,2.5,180.0,1.1,23.3,78,-99,-99,1.2,2.1
庄子底,23.71794,121.49438,C2TB80,2026-02-24T16:10:00+08:00,花蓮縣,鳳林鎮,2026-02-24 16:27:26.226756,多雲,-99,-99,0.0,90.0,1.2,25.5,67,-99,-99,2.0,3.8
長橋,23.6874,121.46186,C2TB90,2026-02-24T16:10:00+08:00,花蓮縣,鳳林鎮,2026-02-24 16:27:26.226760,多雲,-99,-99,0.0,120.0,1.0,25.1,72,-99,-99,1.3,3.1
麻汝,23.42554,121.39358,C2TB50,2026-02-24T16:10:00+08:00,花蓮縣,玉里鎮,2026-02-24 16:27:26.226764,陰,-99,-99,0.0,360.0,0.9,26.1,65,-99,-99,1.3,2.6
達谷寮,23.38,121.35968,C2TB70,2026-02-24T16:10:00+08:00,花蓮縣,玉里鎮,2026-02-24 16:27:26.226767,陰,-99,-99,0.0,170.0,1.5,26.1,66,-99,-99,1.6,2.8
南安,23.29818,121.26157,C2TB60,2026-02-24T16:10:00+08:00,花蓮縣,卓溪鄉,2026-02-24 16:27:26.226771,陰,-99,-99,0.0,150.0,1.0,25.7,65,-99,-99,2.6,5.2
福盛,23.89353,120.84077,C2H9X0,2026-02-24T16:10:00+08:00,南投縣,中寮鄉,2026-02-24 16:27:26.226775,陰,-99,-99,-99,-99,-99,-99,-99,-99,-99,-99,-99
埔南,23.99124,120.46969,C2G9C0,2026-02-24T16:10:00+08:00,彰化縣,埔鹽鄉,2026-02-24 16:27:26.226779,陰,-99,-99,0.0,10.0,3.1,22.9,76,-99,-99,4.3,5.9
移民庄,23.9784,120.40283,C2G9E0,2026-02-24T16:10:00+08:00,彰化縣,二林鎮,2026-02-24 16:27:26.226783,陰,-99,-99,0.0,10.0,3.1,22.6,79,-99,-99,3.6,5.5
港尾布雞,23.74834,120.38439,C2K310,2026-02-24T16:10:00+08:00,雲林縣,崙背鄉,2026-02-24 16:27:26.226786,陰,-99,-99,0.0,10.0,3.5,22.7,82,-99,-99,5.1,7.3
大華,23.4824,120.67491,C2M9A0,2026-02-24T16:10:00+08:00,嘉義縣,竹崎鄉,2026-02-24 16:27:26.226790,陰,-99,-99,0.0,110.0,0.7,19.8,81,-99,-99,1.0,1.6
何竹子腳,23.53641,120.38203,C2M9D0,2026-02-24T16:10:00+08:00,嘉義縣,民雄鄉,2026-02-24 16:27:26.226794,陰,-99,-99,0.0,350.0,4.0,23.5,78,-99,-99,4.0,6.6
紫雲,23.494914,120.540253,C2M9C0,2026-02-24T16:10:00+08:00,嘉義縣,竹崎鄉,2026-02-24 16:27:26.226798,陰,-99,-99,0.0,330.0,2.8,24.7,70,-99,-99,3.0,7.0
旺來山,23.555153,120.486463,C2M9E0,2026-02-24T16:10:00+08:00,嘉義縣,民雄鄉,2026-02-24 16:27:26.226802,陰,-99,-99,-99,360.0,4.8,23.8,73,-99,-99,5.0,7.0
西興,23.2428,120.57617,C2M9B0,2026-02-24T16:10:00+08:00,嘉義縣,大埔鄉,2026-02-24 16:27:26.226806,多雲,-99,-99,0.0,260.0,1.9,26.1,60,-99,-99,2.4,4.5
烏樹,23.32393,120.36989,C2N190,2026-02-24T16:10:00+08:00,臺南市,後壁區,2026-02-24 16:27:26.226809,陰,-99,-99,0.0,320.0,3.9,25.5,72,-99,-99,4.9,7.3
鹿陶洋,23.14325,120.48352,C2N180,2026-02-24T16:10:00+08:00,臺南市,楠西區,2026-02-24 16:27:26.226813,多雲,-99,-99,0.0,300.0,1.8,28.0,58,-99,-99,2.4,6.2
匏子寮,23.04905,120.55319,C2V920,2026-02-24T16:10:00+08:00,高雄市,甲仙區,2026-02-24 16:27:26.226817,多雲,-99,-99,0.0,310.0,3.6,26.5,61,-99,-99,3.9,6.9
瑞山,22.90304,120.43424,C2V580,2026-02-24T16:10:00+08:00,高雄市,內門區,2026-02-24 16:27:26.226821,陰,-99,-99,0.0,310.0,2.4,26.1,65,-99,-99,3.6,6.1
高士國小,22.12553,120.84653,C2R9A0,2026-02-24T16:10:00+08:00,屏東縣,牡丹鄉,2026-02-24 16:27:26.226825,晴,-99,-99,0.0,40.0,0.9,25.2,76,-99,-99,1.9,4.2
奮起湖,23.493903,120.699253,C2M530,2026-02-24T16:10:00+08:00,嘉義縣,竹崎鄉,2026-02-24 16:27:26.226828,陰,-99,-99,0.0,210.0,0.7,16.5,95,-99,-99,0.9,2.2
里佳,23.389125,120.716647,C2M810,2026-02-24T16:10:00+08:00,嘉義縣,阿里山鄉,2026-02-24 16:27:26.226832,多雲,-99,-99,0.0,280.0,0.5,18.1,89,-99,-99,1.9,4.1
觀音,25.027072,121.153317,C2C590,2026-02-24T16:10:00+08:00,桃園市,觀音區,2026-02-24 16:27:26.226836,陰,-99,-99,0.0,350.0,0.6,22.3,83,-99,-99,0.7,1.3
竹南,24.70898,120.88897,C2E420,2026-02-24T16:10:00+08:00,苗栗縣,竹南鎮,2026-02-24 16:27:26.226840,陰,-99,-99,0.0,350.0,0.1,21.9,85,-99,-99,1.3,2.4
南庄,24.601775,121.000214,C2E430,2026-02-24T16:10:00+08:00,苗栗縣,南庄鄉,2026-02-24 16:27:26.226844,陰,-99,-99,0.0,140.0,0.4,20.3,93,-99,-99,1.2,2.0
畜試所澎湖,23.628342,119.513206,C2W230,2026-02-24T16:10:00+08:00,澎湖縣,西嶼鄉,2026-02-24 16:27:26.226848,陰,-99,-99,0.0,20.0,2.1,22.4,84,-99,-99,2.6,5.0
三義,24.405478,120.749819,C2E880,2026-02-24T16:10:00+08:00,苗栗縣,三義鄉,2026-02-24 16:27:26.226851,陰,-99,-99,0.0,50.0,2.5,18.7,91,-99,-99,2.6,5.0
烏石坑,24.273503,120.947617,C2FA00,2026-02-24T16:10:00+08:00,臺中市,和平區,2026-02-24 16:27:26.226855,陰,-99,-99,0.0,20.0,0.6,17.2,95,-99,-99,1.2,2.7
中竹林,24.103556,120.751061,C2F9A0,2026-02-24T16:10:00+08:00,臺中市,太平區,2026-02-24 16:27:26.226859,陰,-99,-99,0.0,340.0,0.8,20.3,86,-99,-99,1.7,4.0
北斗,23.877586,120.514222,C2G840,2026-02-24T16:10:00+08:00,彰化縣,北斗鎮,2026-02-24 16:27:26.226863,陰,-99,-99,0.0,10.0,1.3,23.1,78,-99,-99,2.1,5.0
中寮,23.884447,120.766406,C2H950,2026-02-24T16:10:00+08:00,南投縣,中寮鄉,2026-02-24 16:27:26.226867,陰,-99,-99,0.0,300.0,1.3,23.0,73,-99,-99,1.6,4.0
鳳凰,23.728081,120.787347,C2I090,2026-02-24T16:10:00+08:00,南投縣,鹿谷鄉,2026-02-24 16:27:26.226871,陰,-99,-99,0.0,280.0,1.1,17.3,95,-99,-99,2.0,3.6
梨山,24.247522,121.243669,C2F860,2026-02-24T16:10:00+08:00,臺中市,和平區,2026-02-24 16:27:26.226874,陰,-99,-99,0.0,210.0,2.4,11.5,82,-99,-99,3.5,7.0
草嶺,23.59555,120.693461,C2K240,2026-02-24T16:10:00+08:00,雲林縣,古坑鄉,2026-02-24 16:27:26.226878,陰,-99,-99,0.0,320.0,3.0,16.8,97,-99,-99,4.0,6.0
大湖,24.414939,120.870872,C2E520,2026-02-24T16:10:00+08:00,苗栗縣,大湖鄉,2026-02-24 16:27:26.226882,陰,-99,-99,0.0,330.0,0.5,21.1,82,-99,-99,0.9,2.7
大肚,24.15295,120.572117,C2F000,2026-02-24T16:10:00+08:00,臺中市,大肚區,2026-02-24 16:27:26.226886,陰,-99,-99,0.0,30.0,1.6,20.6,83,-99,-99,2.2,4.8
龍溪,24.606489,120.783933,C2E540,2026-02-24T16:10:00+08:00,苗栗縣,後龍鎮,2026-02-24 16:27:26.226890,陰,-99,-99,0.0,0.0,0.1,21.1,86,-99,-99,1.6,2.2
大甲,24.347667,120.640403,C2F930,2026-02-24T16:10:00+08:00,臺中市,大甲區,2026-02-24 16:27:26.226893,陰,-99,-99,0.0,340.0,0.3,22.1,80,-99,-99,0.4,2.0
芳苑,23.922303,120.320025,C2G870,2026-02-24T16:10:00+08:00,彰化縣,芳苑鄉,2026-02-24 16:27:26.226897,陰,-99,-99,0.0,360.0,2.2,22.3,85,-99,-99,3.5,6.5
鹿港,24.0753,120.430481,C2G640,2026-02-24T16:10:00+08:00,彰化縣,鹿港鎮,2026-02-24 16:27:26.226901,陰,-99,-99,0.0,360.0,2.4,22.3,83,-99,-99,3.4,5.8
嘉義大學,23.471325,120.485903,C2M910,2026-02-24T16:10:00+08:00,嘉義市,東區,2026-02-24 16:27:26.226905,陰,-99,-99,0.0,350.0,2.1,24.5,74,-99,-99,2.5,5.9
安南,23.076694,120.144861,C2O950,2026-02-24T16:10:00+08:00,臺南市,安南區,2026-02-24 16:27:26.226909,陰,-99,-99,0.0,330.0,3.0,24.9,77,-99,-99,3.1,5.3
馬頭山,23.324361,120.582017,C2M410,2026-02-24T16:10:00+08:00,嘉義縣,大埔鄉,2026-02-24 16:27:26.226912,陰,-99,-99,0.0,330.0,3.2,25.4,65,-99,-99,4.0,7.4
曾文,23.219681,120.497328,C2O810,2026-02-24T16:10:00+08:00,臺南市,楠西區,2026-02-24 16:27:26.226917,多雲,-99,-99,0.0,270.0,0.6,27.2,61,-99,-99,1.7,5.8
玉井,23.126042,120.46055,C2O930,2026-02-24T16:10:00+08:00,臺南市,玉井區,2026-02-24 16:27:26.226920,多雲,-99,-99,0.0,290.0,1.3,29.2,57,-99,-99,1.5,5.4
月眉,22.971003,120.539853,C2V260,2026-02-24T16:10:00+08:00,高雄市,杉林區,2026-02-24 16:27:26.226924,多雲,-99,-99,0.0,250.0,2.0,27.0,65,-99,-99,3.4,6.5
甲仙,23.080106,120.591758,C2V250,2026-02-24T16:10:00+08:00,高雄市,甲仙區,2026-02-24 16:27:26.226928,多雲,-99,-99,0.0,300.0,1.3,27.3,60,-99,-99,1.3,3.7
西拉雅風管處,23.189481,120.335297,C2N160,2026-02-24T16:10:00+08:00,臺南市,官田區,2026-02-24 16:27:26.226932,多雲,-99,-99,0.0,300.0,3.1,26.1,67,-99,-99,2.6,6.5
富貴角,25.263783,121.565258,C2A920,2026-02-24T16:10:00+08:00,新北市,石門區,2026-02-24 16:27:26.226936,陰,-99,-99,0.0,250.0,0.8,21.1,84,-99,-99,1.3,3.1
福隆,25.017842,121.942083,C2A880,2026-02-24T16:10:00+08:00,新北市,貢寮區,2026-02-24 16:27:26.226939,陰,-99,-99,0.0,140.0,0.8,22.5,83,-99,-99,1.0,2.5
四堵,24.8926,121.745736,C2A540,2026-02-24T16:10:00+08:00,新北市,坪林區,2026-02-24 16:27:26.226943,陰,-99,-99,0.0,0.0,0.2,20.9,79,-99,-99,0.6,2.1
福山,24.776203,121.502811,C2A560,2026-02-24T16:10:00+08:00,新北市,烏來區,2026-02-24 16:27:26.226947,陰,-99,-99,0.0,0.0,0.1,20.6,85,-99,-99,1.3,3.4
關西工作站,24.757275,121.184792,C2D720,2026-02-24T16:10:00+08:00,新竹縣,關西鎮,2026-02-24 16:27:26.226951,陰,-99,-99,0.0,0.0,0.1,21.4,91,-99,-99,0.6,1.0
寶山農場,24.732444,120.976153,C2D730,2026-02-24T16:10:00+08:00,新竹縣,寶山鄉,2026-02-24 16:27:26.226955,陰,-99,-99,0.0,30.0,0.5,21.3,87,-99,-99,0.6,1.7
屯原,24.067969,121.209389,C2H9K0,2026-02-24T16:10:00+08:00,南投縣,仁愛鄉,2026-02-24 16:27:26.226959,陰,-99,-99,0.0,60.0,1.3,12.8,85,-99,-99,4.5,5.5
田頭村,23.8263,120.444175,C2G980,2026-02-24T16:10:00+08:00,彰化縣,竹塘鄉,2026-02-24 16:27:26.226962,陰,-99,-99,0.0,360.0,1.2,23.1,78,-99,-99,2.2,5.0
草嶺石壁,23.602469,120.707731,C2K610,2026-02-24T16:10:00+08:00,雲林縣,古坑鄉,2026-02-24 16:27:26.226966,陰,-99,-99,0.0,300.0,1.0,17.6,91,-99,-99,2.0,3.5
摩天嶺,24.322458,120.936819,C2F990,2026-02-24T16:10:00+08:00,臺中市,和平區,2026-02-24 16:27:26.226970,陰,-99,-99,0.0,140.0,2.2,16.6,97,-99,-99,2.0,3.5
朴子農改,23.469889,120.259383,C2M920,2026-02-24T16:10:00+08:00,嘉義縣,朴子市,2026-02-24 16:27:26.226974,陰,-99,-99,0.0,350.0,4.0,24.7,74,-99,-99,5.4,7.4
瑞里,23.545133,120.675197,C2M620,2026-02-24T16:10:00+08:00,嘉義縣,梅山鄉,2026-02-24 16:27:26.226978,陰,-99,-99,0.0,310.0,1.3,16.2,98,-99,-99,2.2,3.5
瑞芳,25.113169,121.801147,C2A660,2026-02-24T16:10:00+08:00,新北市,瑞芳區,2026-02-24 16:27:26.226981,陰,-99,-99,0.0,40.0,0.5,23.0,78,-99,-99,0.9,1.8
火燒寮,25.002719,121.742892,C2A650,2026-02-24T16:10:00+08:00,新北市,平溪區,2026-02-24 16:27:26.226985,陰,-99,-99,0.0,0.0,0.2,21.8,81,-99,-99,0.9,1.6
大坪頂農水,24.043122,120.932781,C2H9W0,2026-02-24T16:10:00+08:00,南投縣,埔里鎮,2026-02-24 16:27:26.226989,陰,-99,-99,0.0,280.0,2.6,20.3,77,-99,-99,3.2,5.7
馬光農場,23.721453,120.378864,C2K620,2026-02-24T16:10:00+08:00,雲林縣,虎尾鎮,2026-02-24 16:27:26.226993,陰,-99,-99,0.0,360.0,3.6,22.5,80,-99,-99,5.0,7.3
出雲,24.206469,120.902794,C2FB50,2026-02-24T16:10:00+08:00,臺中市,和平區,2026-02-24 16:27:26.226997,陰,-99,-99,0.0,360.0,1.1,16.2,93,-99,-99,1.3,2.7
頭櫃山,24.129842,120.858925,C2FB60,2026-02-24T16:10:00+08:00,臺中市,新社區,2026-02-24 16:27:26.227000,陰,-99,-99,0.0,300.0,5.0,15.2,99,-99,-99,6.0,7.7
三隻寮,24.093078,120.861578,C2H9D0,2026-02-24T16:10:00+08:00,南投縣,國姓鄉,2026-02-24 16:27:26.227004,陰,-99,-99,0.0,290.0,1.1,20.4,79,-99,-99,1.3,3.5
國姓南港,23.911108,120.846556,C2H9E0,2026-02-24T16:10:00+08:00,南投縣,國姓鄉,2026-02-24 16:27:26.227008,陰,-99,-99,0.0,280.0,2.7,15.5,100,-99,-99,3.4,6.3
柑林,24.018658,120.847072,C2H9F0,2026-02-24T16:10:00+08:00,南投縣,國姓鄉,2026-02-24 16:27:26.227012,陰,-99,-99,0.0,180.0,1.5,22.8,75,-99,-99,3.2,8.4
百勝,24.051142,120.909361,C2H9G0,2026-02-24T16:10:00+08:00,南投縣,國姓鄉,2026-02-24 16:27:26.227016,陰,-99,-99,0.0,280.0,0.9,22.1,72,-99,-99,1.3,3.7
石卓,23.478744,120.702264,C2M930,2026-02-24T16:10:00+08:00,嘉義縣,竹崎鄉,2026-02-24 16:27:26.227020,陰,-99,-99,0.0,250.0,0.8,16.6,90,-99,-99,1.6,3.5
日野賀,23.434056,120.727169,C2M940,2026-02-24T16:10:00+08:00,嘉義縣,阿里山鄉,2026-02-24 16:27:26.227023,多雲,-99,-99,0.0,80.0,1.3,19.5,82,-99,-99,2.7,6.5
太和,23.538372,120.702961,C2M950,2026-02-24T16:10:00+08:00,嘉義縣,梅山鄉,2026-02-24 16:27:26.227027,陰,-99,-99,0.0,350.0,1.3,15.7,97,-99,-99,3.1,4.5
荷苞,23.657717,120.595144,C2K630,2026-02-24T16:10:00+08:00,雲林縣,古坑鄉,2026-02-24 16:27:26.227031,陰,-99,-99,0.0,350.0,1.6,23.3,73,-99,-99,2.6,4.9
苗改南投蜂場,23.852589,120.693481,C2H9H0,2026-02-24T16:10:00+08:00,南投縣,名間鄉,2026-02-24 16:27:26.227035,陰,-99,-99,0.0,340.0,2.5,23.2,73,-99,-99,3.1,5.4
畜試所彰化,23.86045,120.557964,C2G9A0,2026-02-24T16:10:00+08:00,彰化縣,北斗鎮,2026-02-24 16:27:26.227038,陰,-99,-99,0.0,10.0,2.6,23.5,72,-99,-99,2.7,5.2
八甲,24.535811,120.795983,C2E970,2026-02-24T16:10:00+08:00,苗栗縣,苗栗市,2026-02-24 16:27:26.227042,陰,-99,-99,0.0,10.0,0.6,20.6,89,-99,-99,1.6,3.0
中台,23.9996,120.938739,C2H9J0,2026-02-24T16:10:00+08:00,南投縣,埔里鎮,2026-02-24 16:27:26.227046,陰,-99,-99,0.0,270.0,1.7,21.0,75,-99,-99,2.4,5.0
馬烈霸,24.1512,121.201772,C2H9L0,2026-02-24T16:10:00+08:00,南投縣,仁愛鄉,2026-02-24 16:27:26.227050,陰,-99,-99,0.0,130.0,1.3,13.8,76,-99,-99,1.5,2.9
發祥,24.154094,121.164517,C2H9M0,2026-02-24T16:10:00+08:00,南投縣,仁愛鄉,2026-02-24 16:27:26.227054,陰,-99,-99,0.0,110.0,0.5,19.8,61,-99,-99,1.8,3.2
仁愛東眼,24.026875,121.1205,C2H9N0,2026-02-24T16:10:00+08:00,南投縣,仁愛鄉,2026-02-24 16:27:26.227057,陰,-99,-99,0.0,240.0,5.0,15.9,88,-99,-99,4.4,6.0
伊拿谷,23.963211,121.088264,C2H9P0,2026-02-24T16:10:00+08:00,南投縣,仁愛鄉,2026-02-24 16:27:26.227061,陰,-99,-99,0.0,190.0,0.9,21.4,66,-99,-99,2.4,4.4
北東眼山,24.120939,121.189303,C2H9Q0,2026-02-24T16:10:00+08:00,南投縣,仁愛鄉,2026-02-24 16:27:26.227065,陰,-99,-99,0.0,360.0,0.4,13.2,79,-99,-99,0.6,1.5
卓社,23.887894,121.000086,C2H9R0,2026-02-24T16:10:00+08:00,南投縣,仁愛鄉,2026-02-24 16:27:26.227069,陰,-99,-99,0.0,320.0,1.0,17.1,88,-99,-99,1.7,4.0
龍南,23.953536,120.833183,C2H9S0,2026-02-24T16:10:00+08:00,南投縣,國姓鄉,2026-02-24 16:27:26.227073,陰,-99,-99,0.0,290.0,4.2,16.5,90,-99,-99,3.7,6.3
屏科大,22.648275,120.619247,C2R970,2026-02-24T16:10:00+08:00,屏東縣,內埔鄉,2026-02-24 16:27:26.227076,陰,-99,-99,0.0,300.0,2.5,28.6,58,-99,-99,3.2,6.4
名間竹圍,23.859914,120.637572,C2H9T0,2026-02-24T16:10:00+08:00,南投縣,名間鄉,2026-02-24 16:27:26.227080,陰,-99,-99,0.0,330.0,1.0,21.5,79,-99,-99,2.2,4.0
鳳鵬,23.763919,120.788061,C2H9U0,2026-02-24T16:10:00+08:00,南投縣,鹿谷鄉,2026-02-24 16:27:26.227084,陰,-99,-99,0.0,310.0,0.6,22.4,74,-99,-99,0.9,2.2
國一N174K,24.2049,120.6552,CAF010,2026-02-24T16:10:00+08:00,臺中市,西屯區,2026-02-24 16:27:26.227088,陰,16-20,-99,0.0,350.0,2.4,21.6,85,-99,-99,3.5,6.2
國一N198K,24.063889,120.523056,CAG010,2026-02-24T16:10:00+08:00,彰化縣,彰化市,2026-02-24 16:27:26.227092,陰,-99,-99,0.0,20.0,2.7,22.2,84,-99,-99,4.4,7.3
國一N234K,23.74633,120.467926,CAJ020,2026-02-24T16:10:00+08:00,雲林縣,西螺鎮,2026-02-24 16:27:26.227095,陰,16-20,-99,0.0,20.0,5.9,22.3,76,-99,-99,5.5,7.5
國一N250K,23.610292,120.436867,CAL010,2026-02-24T16:10:00+08:00,嘉義縣,大林鎮,2026-02-24 16:27:26.227099,陰,-99,-99,0.0,360.0,5.0,23.5,87,-99,-99,5.5,8.0
國一S105K,24.726316,120.940643,CAD010,2026-02-24T16:10:00+08:00,新竹縣,寶山鄉,2026-02-24 16:27:26.227103,陰,7-10,-99,0.0,70.0,1.1,22.1,91,-99,-99,1.0,2.7
國一S114K,24.668836,120.885811,CAE020,2026-02-24T16:10:00+08:00,苗栗縣,頭份市,2026-02-24 16:27:26.227107,陰,-99,-99,0.0,130.0,1.0,21.5,84,-99,-99,1.8,4.3
國一S123K,24.59594,120.86071,CAE030,2026-02-24T16:10:00+08:00,苗栗縣,頭屋鄉,2026-02-24 16:27:26.227111,陰,-99,-99,0.0,10.0,0.6,21.3,84,-99,-99,1.3,2.6
國一S132K,24.524506,120.820831,CAE040,2026-02-24T16:10:00+08:00,苗栗縣,公館鄉,2026-02-24 16:27:26.227114,陰,7-10,-99,0.0,20.0,1.3,21.5,83,-99,-99,2.7,4.7
國一S152K,24.375492,120.749184,CAE050,2026-02-24T16:10:00+08:00,苗栗縣,三義鄉,2026-02-24 16:27:26.227118,陰,21-30,-99,0.0,30.0,3.0,21.1,79,-99,-99,3.6,5.8
國一S162K,24.295534,120.695976,CAF020,2026-02-24T16:10:00+08:00,臺中市,后里區,2026-02-24 16:27:26.227122,陰,-99,-99,0.0,350.0,2.5,21.2,79,-99,-99,3.2,5.2
國一S169K,24.237116,120.688271,CAF030,2026-02-24T16:10:00+08:00,臺中市,神岡區,2026-02-24 16:27:26.227126,陰,-99,-99,0.0,340.0,2.6,21.3,86,-99,-99,3.7,5.9
國一S188K,24.118546,120.585747,CAF040,2026-02-24T16:10:00+08:00,臺中市,大肚區,2026-02-24 16:27:26.227130,陰,-99,-99,0.0,360.0,1.7,22.7,75,-99,-99,4.3,7.2
國一S207K,23.988304,120.508092,CAG030,2026-02-24T16:10:00+08:00,彰化縣,大村鄉,2026-02-24 16:27:26.227133,陰,7-10,-99,0.0,360.0,4.2,22.6,79,-99,-99,5.3,7.0
國三N119K,24.675432,120.847389,CAE060,2026-02-24T16:10:00+08:00,苗栗縣,竹南鎮,2026-02-24 16:27:26.227137,陰,16-20,-99,0.0,310.0,0.9,21.8,90,-99,-99,2.2,3.0
國三N151K,24.440218,120.681656,CAE070,2026-02-24T16:10:00+08:00,苗栗縣,苑裡鎮,2026-02-24 16:27:26.227141,陰,-99,-99,0.0,50.0,1.8,21.8,78,-99,-99,2.6,3.7
國三N191K,24.139256,120.5215,CAG040,2026-02-24T16:10:00+08:00,彰化縣,和美鎮,2026-02-24 16:27:26.227145,陰,-99,-99,0.0,30.0,2.9,21.5,86,-99,-99,4.5,6.2
國三N196K,24.107155,120.554482,CAG050,2026-02-24T16:10:00+08:00,彰化縣,彰化市,2026-02-24 16:27:26.227149,陰,7-10,-99,0.0,360.0,3.0,21.8,80,-99,-99,4.3,6.0
國三N208K,24.066147,120.660919,CAF050,2026-02-24T16:10:00+08:00,臺中市,霧峰區,2026-02-24 16:27:26.227152,陰,-99,-99,0.0,350.0,3.0,22.6,82,-99,-99,4.5,6.2
國一S144K,24.437042,120.778219,CAE560,2026-02-24T16:10:00+08:00,苗栗縣,銅鑼鄉,2026-02-24 16:27:26.227156,陰,7-10,-99,0.0,360.0,1.6,20.5,83,-99,-99,2.7,4.8
國一N158K,24.332372,120.717144,CAF950,2026-02-24T16:10:00+08:00,臺中市,后里區,2026-02-24 16:27:26.227160,陰,7-10,-99,0.0,10.0,1.3,21.6,83,-99,-99,4.5,6.3
國三S175K,24.251494,120.589683,CAF960,2026-02-24T16:10:00+08:00,臺中市,沙鹿區,2026-02-24 16:27:26.227164,陰,7-10,-99,0.0,360.0,1.8,21.3,80,-99,-99,3.6,6.0
國三N183K,24.193628,120.570311,CAF980,2026-02-24T16:10:00+08:00,臺中市,龍井區,2026-02-24 16:27:26.227167,陰,7-10,-99,0.0,10.0,1.8,21.3,83,-99,-99,2.9,4.8
國三N223K,23.955116,120.662376,CAH010,2026-02-24T16:10:00+08:00,南投縣,草屯鎮,2026-02-24 16:27:26.227171,陰,21-30,-99,0.0,340.0,3.7,22.5,75,-99,-99,5.3,7.2
國三N252K,23.77412,120.64061,CAJ010,2026-02-24T16:10:00+08:00,雲林縣,林內鄉,2026-02-24 16:27:26.227175,陰,7-10,-99,0.0,290.0,2.2,23.0,86,-99,-99,4.0,6.9
國三S140K,24.522345,120.725006,CAE080,2026-02-24T16:10:00+08:00,苗栗縣,通霄鎮,2026-02-24 16:27:26.227179,陰,7-10,-99,0.0,20.0,1.5,21.3,82,-99,-99,2.0,3.2
國三S156K,24.39798,120.669487,CAE090,2026-02-24T16:10:00+08:00,苗栗縣,苑裡鎮,2026-02-24 16:27:26.227183,陰,-99,-99,0.0,40.0,2.5,22.1,78,-99,-99,3.1,3.9
國三S168K,24.308519,120.614471,CAF060,2026-02-24T16:10:00+08:00,臺中市,清水區,2026-02-24 16:27:26.227186,陰,11-15,-99,0.0,350.0,1.2,21.3,82,-99,-99,2.6,3.7
國三S202K,24.092468,120.603256,CAG060,2026-02-24T16:10:00+08:00,彰化縣,彰化市,2026-02-24 16:27:26.227190,陰,-99,-99,0.0,350.0,2.7,22.8,77,-99,-99,2.7,6.8
國三S217K,24.00683,120.653214,CAH020,2026-02-24T16:10:00+08:00,南投縣,草屯鎮,2026-02-24 16:27:26.227194,陰,-99,-99,0.0,360.0,2.7,23.0,82,-99,-99,4.7,6.5
國四E5K,24.296465,120.643135,CAF090,2026-02-24T16:10:00+08:00,臺中市,神岡區,2026-02-24 16:27:26.227198,陰,-99,-99,0.0,300.0,1.0,21.8,87,-99,-99,1.7,4.2
國三甲005K,25.00194,121.5975,CAA090,2026-02-24T16:10:00+08:00,臺北市,文山區,2026-02-24 16:27:26.227202,陰,21-30,-99,0.0,220.0,0.9,24.0,76,-99,-99,2.4,3.7
國二E009K,25.018244,121.273697,CAC020,2026-02-24T16:10:00+08:00,桃園市,桃園區,2026-02-24 16:27:26.227206,陰,16-20,-99,0.0,10.0,1.1,23.0,79,-99,-99,1.2,2.2
國三N002K,25.14583,121.7217,CAB050,2026-02-24T16:10:00+08:00,基隆市,中山區,2026-02-24 16:27:26.227209,陰,-99,-99,0.0,0.0,0.2,21.5,87,-99,-99,0.9,2.2
國三S004K,25.11444,121.6886,CAB030,2026-02-24T16:10:00+08:00,基隆市,七堵區,2026-02-24 16:27:26.227213,陰,-99,-99,0.0,50.0,0.6,22.5,81,-99,-99,1.3,3.0
國三S007K,25.09694,121.6678,CAB040,2026-02-24T16:10:00+08:00,基隆市,七堵區,2026-02-24 16:27:26.227217,陰,7-10,-99,0.0,80.0,1.3,23.1,83,-99,-99,1.3,2.7
國三S010K,25.08,121.6475,CAA030,2026-02-24T16:10:00+08:00,新北市,汐止區,2026-02-24 16:27:26.227221,陰,-99,-99,0.0,20.0,0.6,24.3,64,-99,-99,1.2,2.7
國三S016K,25.03306,121.6158,CAA040,2026-02-24T16:10:00+08:00,臺北市,南港區,2026-02-24 16:27:26.227224,陰,-99,-99,0.0,360.0,0.8,23.7,75,-99,-99,1.8,4.2
國三S037K,24.982361,121.471042,CAA050,2026-02-24T16:10:00+08:00,新北市,土城區,2026-02-24 16:27:26.227228,陰,-99,-99,0.0,230.0,0.6,23.8,75,-99,-99,1.6,3.1
國三S042K,24.96,121.4306,CAA060,2026-02-24T16:10:00+08:00,新北市,土城區,2026-02-24 16:27:26.227232,陰,7-10,-99,0.0,190.0,0.9,23.5,80,-99,-99,1.3,4.0
國三N046K,24.95083,121.3958,CAA070,2026-02-24T16:10:00+08:00,新北市,樹林區,2026-02-24 16:27:26.227236,陰,-99,-99,0.0,320.0,0.9,24.0,75,-99,-99,2.7,3.7
國一N039K,25.064433,121.381972,CAA990,2026-02-24T16:10:00+08:00,新北市,泰山區,2026-02-24 16:27:26.227240,陰,21-30,-99,0.0,280.0,0.6,22.1,78,-99,-99,1.2,3.2
國一高架N063K,24.950281,121.196314,CAC760,2026-02-24T16:10:00+08:00,桃園市,平鎮區,2026-02-24 16:27:26.227243,陰,21-30,-99,0.0,320.0,0.8,22.0,81,-99,-99,1.8,3.1
國三N077K,24.797294,121.190033,CAD710,2026-02-24T16:10:00+08:00,新竹縣,關西鎮,2026-02-24 16:27:26.227247,陰,7-10,-99,0.0,170.0,0.5,21.8,84,-99,-99,1.3,3.0
國三N072K,24.836391,121.199371,CAC770,2026-02-24T16:10:00+08:00,桃園市,龍潭區,2026-02-24 16:27:26.227251,陰,7-10,-99,0.0,20.0,0.4,21.3,83,-99,-99,1.6,3.1
國五S005K,24.996414,121.651931,CAAD60,2026-02-24T16:10:00+08:00,新北市,石碇區,2026-02-24 16:27:26.227255,陰,7-10,-99,0.0,10.0,0.4,23.1,70,-99,-99,2.0,3.5
國五S006K,24.989964,121.656972,CAAD70,2026-02-24T16:10:00+08:00,新北市,石碇區,2026-02-24 16:27:26.227259,陰,7-10,-99,0.0,10.0,0.4,23.0,81,-99,-99,2.2,3.5
國五N008K,24.982411,121.668089,CAAD80,2026-02-24T16:10:00+08:00,新北市,石碇區,2026-02-24 16:27:26.227262,陰有靄,7-10,-99,0.0,350.0,0.5,22.5,80,-99,-99,1.8,3.5
國五N013K,24.947603,121.705508,CAAD90,2026-02-24T16:10:00+08:00,新北市,坪林區,2026-02-24 16:27:26.227266,陰,7-10,-99,0.0,120.0,0.4,22.2,84,-99,-99,1.3,3.2
國五S031K,24.819144,121.782378,CAUB30,2026-02-24T16:10:00+08:00,宜蘭縣,礁溪鄉,2026-02-24 16:27:26.227270,陰,>30,-99,0.0,40.0,5.0,24.0,81,-99,-99,4.7,6.8
國五S041K,24.734764,121.781922,CAUB40,2026-02-24T16:10:00+08:00,宜蘭縣,壯圍鄉,2026-02-24 16:27:26.227274,陰,-99,-99,0.0,40.0,3.6,23.7,85,-99,-99,3.5,5.4
國五S047K,24.675456,121.794583,CAUB50,2026-02-24T16:10:00+08:00,宜蘭縣,羅東鎮,2026-02-24 16:27:26.227278,陰,-99,-99,0.5,330.0,3.7,23.8,80,-99,-99,3.7,5.0
國三S054K,24.93917,121.3239,CAA080,2026-02-24T16:10:00+08:00,新北市,鶯歌區,2026-02-24 16:27:26.227282,陰,21-30,-99,0.0,150.0,0.5,23.6,78,-99,-99,1.3,2.9
國三N063K,24.889514,121.2636,CAC030,2026-02-24T16:10:00+08:00,桃園市,大溪區,2026-02-24 16:27:26.227286,陰,-99,-99,0.0,220.0,1.0,22.5,78,-99,-99,1.7,3.6
國三N085K,24.78333,121.1211,CAD080,2026-02-24T16:10:00+08:00,新竹縣,關西鎮,2026-02-24 16:27:26.227289,陰,21-30,-99,0.0,220.0,0.6,21.8,86,-99,-99,1.0,3.2
國三S103K,24.75861,120.9608,CAD090,2026-02-24T16:10:00+08:00,新竹市,東區,2026-02-24 16:27:26.227293,陰,7-10,-99,0.0,60.0,1.6,21.8,85,-99,-99,1.8,3.7
國一S001K,25.11583,121.7286,CAB010,2026-02-24T16:10:00+08:00,基隆市,安樂區,2026-02-24 16:27:26.227297,陰,11-15,-99,0.0,20.0,1.0,22.3,86,-99,-99,2.2,3.9
國一S006K,25.08694,121.6869,CAB020,2026-02-24T16:10:00+08:00,基隆市,七堵區,2026-02-24 16:27:26.227301,陰,-99,-99,0.0,10.0,1.7,23.5,80,-99,-99,2.4,3.4
國一N013K,25.066739,121.628153,CAA010,2026-02-24T16:10:00+08:00,新北市,汐止區,2026-02-24 16:27:26.227305,陰,-99,-99,0.0,270.0,1.8,24.6,72,-99,-99,1.8,3.7
國一S026K,25.07639,121.4964,CAA020,2026-02-24T16:10:00+08:00,新北市,三重區,2026-02-24 16:27:26.227309,陰,7-10,-99,0.0,30.0,1.1,23.8,71,-99,-99,1.2,3.2
國一S072K,24.89583,121.1342,CAC010,2026-02-24T16:10:00+08:00,桃園市,楊梅區,2026-02-24 16:27:26.227312,陰,7-10,-99,0.0,340.0,0.8,21.2,82,-99,-99,1.3,1.8
國一N077K,24.885,121.0889,CAD020,2026-02-24T16:10:00+08:00,新竹縣,湖口鄉,2026-02-24 16:27:26.227316,陰,-99,-99,0.0,250.0,0.9,21.5,83,-99,-99,2.2,4.4
國一S082K,24.87667,121.0467,CAD030,2026-02-24T16:10:00+08:00,新竹縣,湖口鄉,2026-02-24 16:27:26.227320,陰,-99,-99,0.0,20.0,0.4,21.6,79,-99,-99,1.2,2.1
國一S088K,24.84444,121.0214,CAD040,2026-02-24T16:10:00+08:00,新竹縣,竹北市,2026-02-24 16:27:26.227324,陰,21-30,-99,0.0,80.0,0.6,23.1,81,-99,-99,1.2,3.1
國一N094K,24.79778,121.0089,CAD050,2026-02-24T16:10:00+08:00,新竹市,東區,2026-02-24 16:27:26.227328,陰,-99,-99,0.0,350.0,1.2,23.1,74,-99,-99,1.3,2.6
國一S098K,24.76056,120.9911,CAD060,2026-02-24T16:10:00+08:00,新竹縣,寶山鄉,2026-02-24 16:27:26.227331,陰,-99,-99,0.0,330.0,0.6,22.5,84,-99,-99,1.3,1.8
國一S262K,23.512333,120.403038,CAL020,2026-02-24T16:10:00+08:00,嘉義縣,民雄鄉,2026-02-24 16:27:26.227335,陰,7-10,-99,0.0,340.0,4.8,22.8,90,-99,-99,6.5,8.6
國一N268K,23.460833,120.375833,CAL030,2026-02-24T16:10:00+08:00,嘉義縣,水上鄉,2026-02-24 16:27:26.227339,陰,-99,-99,0.0,340.0,2.2,23.6,88,-99,-99,5.7,8.4
國一N273K,23.416666,120.355,CAL040,2026-02-24T16:10:00+08:00,嘉義縣,水上鄉,2026-02-24 16:27:26.227343,陰,-99,-99,0.0,350.0,5.0,24.1,87,-99,-99,5.5,8.1
國一N288K,23.30609,120.290033,CAN010,2026-02-24T16:10:00+08:00,臺南市,新營區,2026-02-24 16:27:26.227347,多雲,>30,-99,0.0,350.0,2.4,25.2,74,-99,-99,3.7,7.9
國一S306K,23.152831,120.230558,CAN020,2026-02-24T16:10:00+08:00,臺南市,麻豆區,2026-02-24 16:27:26.227350,多雲,7-10,-99,0.0,310.0,3.7,24.1,76,-99,-99,4.4,6.7
國一N323K,23.011789,120.249453,CAN040,2026-02-24T16:10:00+08:00,臺南市,永康區,2026-02-24 16:27:26.227354,陰,-99,-99,0.0,310.0,2.6,25.8,80,-99,-99,2.7,5.0
國一S342K,22.845555,120.295,CAP010,2026-02-24T16:10:00+08:00,高雄市,路竹區,2026-02-24 16:27:26.227358,陰,-99,-99,0.0,290.0,2.6,25.8,82,-99,-99,3.2,5.4
國一S346K,22.812222,120.314166,CAP020,2026-02-24T16:10:00+08:00,高雄市,岡山區,2026-02-24 16:27:26.227362,陰,-99,-99,0.0,260.0,1.0,26.3,79,-99,-99,1.3,3.5
國一N351K,22.765833,120.328888,CAP030,2026-02-24T16:10:00+08:00,高雄市,橋頭區,2026-02-24 16:27:26.227366,陰,-99,-99,-99,-99,-99,-99,-99,-99,-99,-99,-99
國一N361K,22.680555,120.328611,CAP040,2026-02-24T16:10:00+08:00,高雄市,仁武區,2026-02-24 16:27:26.227369,陰,7-10,-99,0.0,280.0,3.2,25.6,83,-99,-99,4.2,6.2
國三N279K,23.596111,120.523333,CAL050,2026-02-24T16:10:00+08:00,嘉義縣,大林鎮,2026-02-24 16:27:26.227373,陰,16-20,-99,0.0,10.0,3.0,23.5,83,-99,-99,4.0,6.8
國三N295K,23.468598,120.499369,CAL070,2026-02-24T16:10:00+08:00,嘉義市,東區,2026-02-24 16:27:26.227377,陰,7-10,-99,0.0,350.0,3.4,23.8,83,-99,-99,3.7,7.3
國三S290K,23.504106,120.490742,CAM900,2026-02-24T16:10:00+08:00,嘉義縣,竹崎鄉,2026-02-24 16:27:26.227381,陰,7-10,-99,0.0,360.0,5.0,24.0,83,-99,-99,5.3,8.3
國一S336K,22.894167,120.271178,CAV270,2026-02-24T16:10:00+08:00,高雄市,路竹區,2026-02-24 16:27:26.227385,陰,>30,-99,0.0,270.0,2.0,26.2,74,-99,-99,3.0,4.5
國一N315K,23.0835,120.251897,CAN150,2026-02-24T16:10:00+08:00,臺南市,新市區,2026-02-24 16:27:26.227388,多雲,11-15,-99,0.0,330.0,4.0,25.2,80,-99,-99,4.4,6.3
國三S378K,22.825958,120.415519,CAV280,2026-02-24T16:10:00+08:00,高雄市,田寮區,2026-02-24 16:27:26.227392,陰,7-10,-99,0.0,330.0,3.2,26.0,79,-99,-99,3.2,5.5
國三N303K,23.411969,120.452447,CAL080,2026-02-24T16:10:00+08:00,嘉義縣,中埔鄉,2026-02-24 16:27:26.227396,陰,7-10,-99,0.0,330.0,1.7,24.1,85,-99,-99,3.5,7.9
國三S311K,23.346388,120.438888,CAN060,2026-02-24T16:10:00+08:00,臺南市,白河區,2026-02-24 16:27:26.227400,陰,11-15,-99,0.0,350.0,4.0,24.6,74,-99,-99,5.2,7.7
國三S329K,23.212777,120.355833,CAN070,2026-02-24T16:10:00+08:00,臺南市,官田區,2026-02-24 16:27:26.227404,多雲,21-30,-99,0.0,290.0,5.9,24.7,83,-99,-99,6.5,9.3
國三N336K,23.154722,120.345,CAN080,2026-02-24T16:10:00+08:00,臺南市,官田區,2026-02-24 16:27:26.227407,多雲,-99,-99,0.0,300.0,5.2,25.3,84,-99,-99,5.0,7.4
國三S342K,23.106694,120.327528,CAN090,2026-02-24T16:10:00+08:00,臺南市,善化區,2026-02-24 16:27:26.227411,多雲有霾,7-10,-99,0.0,310.0,4.0,25.5,73,-99,-99,4.3,7.0
國三S366K,22.9077,120.3513,CAN100,2026-02-24T16:10:00+08:00,臺南市,關廟區,2026-02-24 16:27:26.227415,陰,16-20,-99,0.0,300.0,1.3,25.8,69,-99,-99,1.8,4.3
國三S385K,22.767777,120.444444,CAP060,2026-02-24T16:10:00+08:00,高雄市,大樹區,2026-02-24 16:27:26.227419,陰有霾,7-10,-99,0.0,280.0,1.5,26.7,71,-99,-99,2.7,5.2
國三S415K,22.568,120.528,CAQ020,2026-02-24T16:10:00+08:00,屏東縣,竹田鄉,2026-02-24 16:27:26.227423,陰,>30,-99,0.0,250.0,4.0,27.2,62,-99,-99,3.9,6.0
國三N425K,22.480277,120.531666,CAQ010,2026-02-24T16:10:00+08:00,屏東縣,南州鄉,2026-02-24 16:27:26.227426,陰,-99,-99,0.0,230.0,3.2,27.5,70,-99,-99,4.5,7.5
西濱S241K,23.623426,120.172646,CAJ040,2026-02-24T16:10:00+08:00,雲林縣,口湖鄉,2026-02-24 16:27:26.227430,陰,-99,-99,-99,-99,-99,-99,-99,-99,-99,-99,-99
西濱S267K,23.41613,120.162872,CAL100,2026-02-24T16:10:00+08:00,嘉義縣,東石鄉,2026-02-24 16:27:26.227434,陰,>30,-99,0.0,350.0,5.3,23.3,79,-99,-99,6.2,7.8
西濱S023K,25.11649,121.27551,CAC050,2026-02-24T16:10:00+08:00,桃園市,蘆竹區,2026-02-24 16:27:26.227438,陰,21-30,-99,-99,-99,-99,-99,-99,-99,-99,-99,-99
西濱S032K,25.091966,121.192505,CAC060,2026-02-24T16:10:00+08:00,桃園市,大園區,2026-02-24 16:27:26.227442,陰,-99,-99,-99,-99,-99,-99,-99,-99,-99,-99,-99
西濱N066K,24.8956,120.9649,CAD100,2026-02-24T16:10:00+08:00,新竹縣,新豐鄉,2026-02-24 16:27:26.227445,陰,7-10,-99,0.0,280.0,0.7,22.1,86,-99,-99,0.9,1.4
西濱S082K,24.751724,120.905028,CAD110,2026-02-24T16:10:00+08:00,新竹市,香山區,2026-02-24 16:27:26.227449,陰,16-20,-99,0.0,30.0,0.8,21.9,89,-99,-99,1.4,2.6
西濱N107K,24.5958,120.7394,CAE100,2026-02-24T16:10:00+08:00,苗栗縣,後龍鎮,2026-02-24 16:27:26.227453,陰,16-20,-99,0.0,160.0,0.6,21.2,89,-99,-99,1.2,2.1
西濱S129K,24.4472,120.6428,CAE110,2026-02-24T16:10:00+08:00,苗栗縣,苑裡鎮,2026-02-24 16:27:26.227457,陰,21-30,-99,0.0,40.0,2.4,22.0,79,-99,-99,3.8,5.0
西濱N151K,24.275964,120.547681,CAF100,2026-02-24T16:10:00+08:00,臺中市,清水區,2026-02-24 16:27:26.227461,陰,16-20,-99,0.0,30.0,1.4,21.8,83,-99,-99,2.5,4.5
西濱S173K,24.1081,120.434576,CAG070,2026-02-24T16:10:00+08:00,彰化縣,鹿港鎮,2026-02-24 16:27:26.227464,陰,16-20,-99,0.0,30.0,3.2,22.0,83,-99,-99,4.8,6.4
西濱S189K,23.987857,120.369607,CAG080,2026-02-24T16:10:00+08:00,彰化縣,芳苑鄉,2026-02-24 16:27:26.227468,陰,16-20,-99,0.0,20.0,4.5,21.5,85,-99,-99,5.3,7.5
西濱N210K,23.843536,120.293236,CAG090,2026-02-24T16:10:00+08:00,彰化縣,大城鄉,2026-02-24 16:27:26.227472,陰,21-30,-99,0.0,30.0,4.5,21.6,86,-99,-99,7.0,8.9
西濱N222K,23.737734,120.256132,CAJ030,2026-02-24T16:10:00+08:00,雲林縣,麥寮鄉,2026-02-24 16:27:26.227476,陰,16-20,-99,0.0,10.0,5.1,21.7,84,-99,-99,6.3,8.4
西濱S257K,23.502278,120.171861,CAL090,2026-02-24T16:10:00+08:00,嘉義縣,東石鄉,2026-02-24 16:27:26.227479,陰,11-15,-99,0.0,10.0,2.5,23.6,79,-99,-99,3.2,6.4
西濱S280K,23.3052,120.14891,CAN110,2026-02-24T16:10:00+08:00,臺南市,北門區,2026-02-24 16:27:26.227483,陰,16-20,-99,0.0,350.0,5.8,23.1,81,-99,-99,6.2,8.1
西濱N304K,23.103439,120.086694,CAN120,2026-02-24T16:10:00+08:00,臺南市,七股區,2026-02-24 16:27:26.227487,陰,>30,-99,0.0,10.0,5.7,23.4,83,-99,-99,6.2,7.3
基隆,25.133314,121.740475,466940,2026-02-24T16:10:00+08:00,基隆市,仁愛區,2026-02-24 16:27:26.293477,陰有靄,7-10,0.7,0.0,40.0,1.6,20.9,86,1010.4,1,2.7,4.1
淡水,25.164889,121.448906,466900,2026-02-24T16:10:00+08:00,新北市,淡水區,2026-02-24 16:27:26.293493,陰有雨,7-10,0.3,-990.0,300.0,0.5,20.8,92,1011.8,1,0.8,1.8
新北,24.959207,121.525196,466881,2026-02-24T16:10:00+08:00,新北市,新店區,2026-02-24 16:27:26.293498,陰,21-30,0.4,-990.0,270.0,1.3,24.0,68,1010.8,0,1.9,3.4
陽明山,25.162078,121.544547,466930,2026-02-24T16:10:00+08:00,臺北市,北投區,2026-02-24 16:27:26.293503,陰,-99,0.4,0.0,0.0,0.0,18.4,92,945.3,1,1.7,2.8
鞍部,25.182586,121.529731,466910,2026-02-24T16:10:00+08:00,臺北市,北投區,2026-02-24 16:27:26.293507,陰有雨,16-20,0.3,-990.0,190.0,0.6,16.9,96,-99,1,2.2,2.9
新竹,24.828575,121.01445,467571,2026-02-24T16:10:00+08:00,新竹縣,竹北市,2026-02-24 16:27:26.293511,陰,>30,0.8,-990.0,0.0,0.2,23.2,73,1010.4,0,1.6,2.2
臺中,24.145736,120.684075,467490,2026-02-24T16:10:00+08:00,臺中市,北區,2026-02-24 16:27:26.293514,陰,16-20,1.9,-990.0,350.0,1.4,23.2,72,1003.8,0,2.4,5.3
梧棲,24.256003,120.523381,C0FA30,2026-02-24T16:10:00+08:00,臺中市,梧棲區,2026-02-24 16:27:26.293518,陰,-99,-99,0.0,360.0,1.8,21.6,89,-99,-99,4.0,6.4
澎湖,23.565503,119.563094,467350,2026-02-24T16:10:00+08:00,澎湖縣,馬公市,2026-02-24 16:27:26.293522,陰,21-30,2.5,0.0,20.0,2.6,22.9,82,1012.2,1,3.1,5.4
日月潭,23.881325,120.90805,467650,2026-02-24T16:10:00+08:00,南投縣,魚池鄉,2026-02-24 16:27:26.293526,陰有靄,7-10,3.3,0.0,270.0,0.8,19.5,83,-99,1,1.6,3.3
阿里山,23.508208,120.813242,467530,2026-02-24T16:10:00+08:00,嘉義縣,阿里山鄉,2026-02-24 16:27:26.293530,多雲,>30,2.6,0.0,320.0,0.7,11.4,89,-99,2,1.5,3.9
玉山,23.48718,120.95943,467550,2026-02-24T16:10:00+08:00,南投縣,信義鄉,2026-02-24 16:27:26.293534,多雲,-99,1.8,0.0,210.0,1.3,6.5,61,-99,2,3.5,10.4
嘉義,23.495925,120.432906,467480,2026-02-24T16:10:00+08:00,嘉義市,西區,2026-02-24 16:27:26.293538,陰,16-20,2.0,0.0,350.0,3.1,24.0,78,1010.0,1,-99,-99
臺南,22.99328,120.20492,467410,2026-02-24T16:10:00+08:00,臺南市,中西區,2026-02-24 16:27:26.293542,陰,11-15,1.7,0.0,330.0,3.3,25.8,68,1010.1,1,3.2,5.5
高雄,22.730432,120.312516,467441,2026-02-24T16:10:00+08:00,高雄市,楠梓區,2026-02-24 16:27:26.293546,陰,>30,2.3,0.0,290.0,2.3,26.6,71,1011.3,2,3.3,5.5
恆春,22.003897,120.746339,467590,2026-02-24T16:10:00+08:00,屏東縣,恆春鎮,2026-02-24 16:27:26.293549,晴,>30,2.7,-990.0,100.0,3.4,27.0,67,1009.5,3,4.1,9.1
宜蘭,24.763975,121.756528,467080,2026-02-24T16:10:00+08:00,宜蘭縣,宜蘭市,2026-02-24 16:27:26.293553,陰,>30,2.7,0.0,50.0,3.2,24.4,76,1012.8,1,3.9,6.2
花蓮,23.975128,121.613275,466990,2026-02-24T16:10:00+08:00,花蓮縣,花蓮市,2026-02-24 16:27:26.293557,陰,21-30,4.7,0.0,170.0,3.8,25.1,77,1010.8,2,4.9,6.9
成功,23.097486,121.373428,467610,2026-02-24T16:10:00+08:00,臺東縣,成功鎮,2026-02-24 16:27:26.293561,多雲,21-30,2.3,1.0,140.0,1.7,25.5,73,1008.2,2,2.0,3.8
臺東,22.752211,121.154586,467660,2026-02-24T16:10:00+08:00,臺東縣,臺東市,2026-02-24 16:27:26.293565,晴,>30,3.3,1.5,160.0,1.3,26.0,72,1011.5,3,1.6,3.1
大武,22.35572,120.90374,467540,2026-02-24T16:10:00+08:00,臺東縣,大武鄉,2026-02-24 16:27:26.293568,晴,-99,4.2,0.0,110.0,1.1,26.0,74,1011.7,3,1.7,2.8
蘭嶼,22.0369,121.55843,467620,2026-02-24T16:10:00+08:00,臺東縣,蘭嶼鄉,2026-02-24 16:27:26.293572,晴,>30,3.9,-990.0,160.0,1.2,24.4,79,976.3,2,4.4,7.0
彭佳嶼,25.627975,122.079744,466950,2026-02-24T16:10:00+08:00,基隆市,中正區,2026-02-24 16:27:26.293576,陰有靄,7-10,0.2,-990.0,310.0,3.7,19.3,94,1002.3,1,3.9,5.0
東吉島,23.25727,119.66762,467300,2026-02-24T16:10:00+08:00,澎湖縣,望安鄉,2026-02-24 16:27:26.293580,陰,21-30,2.9,0.0,30.0,5.3,23.1,82,1008.3,2,5.7,7.0
南沙島,10.370203,114.364286,469020,2026-02-24T16:10:00+08:00,高雄市,旗津區,2026-02-24 16:27:26.293584,-99,-99,-99,-99,-99,-99,-99,-99,-99,-99,-99,-99
東沙島,20.700856,116.73,468100,2026-02-24T16:10:00+08:00,高雄市,旗津區,2026-02-24 16:27:26.293588,-99,-99,-99,-99,-99,-99,-99,-99,-99,-99,-99,-99
永康,23.038386,120.2367,467420,2026-02-24T16:10:00+08:00,臺南市,永康區,2026-02-24 16:27:26.293592,多雲,-99,2.3,0.0,320.0,3.5,26.1,66,1011.6,1,3.6,6.4
金門(東),24.448431,118.451786,C2W030,2026-02-24T16:10:00+08:00,金門縣,金湖鎮,2026-02-24 16:27:26.293596,陰,-99,-99,17.0,130.0,1.3,16.1,97,-99,-99,1.8,3.4
臺北,25.037658,121.514853,466920,2026-02-24T16:10:00+08:00,臺北市,中正區,2026-02-24 16:27:26.293599,陰,>30,0.2,-990.0,310.0,0.5,24.9,63,1010.2,0,2.9,4.6
彰師大,24.081389,120.556667,A0G720,2026-02-24T16:10:00+08:00,彰化縣,彰化市,2026-02-24 16:27:26.293603,陰,-99,-99,0.0,320.0,1.3,22.6,82,-99,-99,2.5,5.9
合歡山,24.143186,121.284231,A0Z080,2026-02-24T16:10:00+08:00,花蓮縣,秀林鄉,2026-02-24 16:27:26.293607,陰,-99,-99,0.0,90.0,5.4,5.0,81,-99,-99,6.3,12.9
